ID,UUID,LocationTitle,AddressLine1,AddressLine2,Town,StateOrProvince,Postcode,Country,Latitude,Longitude,ports_original,ports_inferred,ports_rule,is_fast_dc,avg_sessions_per_day_site,avg_sessions_per_day_per_port
461219,0170447A-BF4F-44E3-A292-35FB36F76F9C,South View Serviced Apartments Residential Charger,Jalan Kerinchi Kiri 2,Bangsar South,nan,Kuala Lumpur,59200,,3.113275225,101.6645667,,2,Default AC heuristic,0,5.68,2.84
460908,A1C06647-3E2B-41B8-850A-011EADAB5441,PROTON E.MAS BUTTERWORTH (ELEGANZ LIFESTYLE) (Car Showroom),"7528, Jalan Bagan Ajam",nan,Butterworth,Pulau Pinang,13000,,5.438376,100.381805,,1,Default AC heuristic,0,1.8,1.8
460907,6E5FBD2C-ACA5-4A0D-9B3D-56451D7F2727,MBPP PASAR BAYAN BARU (Grocery),Pasar Bayan Baru,nan,Bayan Lepas,Pulau Pinang,11900,,5.32463,100.287018,,2,Default AC heuristic,0,1.89,0.95
460906,FB75D41B-576D-4AE2-8B95-22CE615FD945,MBPP PASAR RAJAWALI (Public Area),Market and complex MBPP Jalan Rajawali,nan,Bayan Lepas,Pulau Pinang,11900,,5.306942,100.264809,,1,Default AC heuristic,0,2.58,2.58
460905,17FF301D-8F6B-48FD-B8F9-401001BF5AA0,[Restricted] LEXIS SUITES Pulau Pinang (Hotel),28,nan,BAYAN LEPAS,Pulau Pinang,11920,,5.287161,100.232903,,1,Default AC heuristic,0,1.71,1.71
460904,7F4CC5A8-0EB2-4502-8A41-0BDC6B16820E,[Restricted] VERTU RESORT CONDOMINIUM (Residential Condo),Vertu Resort Condominium,nan,Simpang Ampat,Pulau Pinang,14110,,5.237983,100.438507,,4,Venue multi-bay heuristic,0,5.08,1.27
460903,BAEA83D2-2D4A-4834-881A-0D54A37E9A23,[Restricted] ARCORIS RESIDENCES (Residential Condo),Arcoris Residences,nan,Kuala Lumpur,Kuala Lumpur,50480,,3.16833,101.651833,,2,Default AC heuristic,0,3.97,1.98
460902,027DE4CD-AE86-471A-9D81-2D01C35F1411,[Restricted] TRX RESIDENCES TOWER B (Residential Condo),TRX Residences @ TRX,nan,Kuala Lumpur,Kuala Lumpur,55188,,3.143634,101.719177,,2,Default AC heuristic,0,12.95,6.48
460901,580B433B-7A29-4425-9B14-DBA12B789F62,PUSAT DAGANGAN NZX (Shopping Mall),"Pusat Dagangan NZX, 47301",nan,Petaling Jaya,Selangor,47301,,3.115191,101.589211,,2,Default AC heuristic,0,2.47,1.24
460900,117EF0C6-5911-45AF-8E28-01740A1CECCB,[Restricted] BUNGARAYA CONDOMINIUM (Residential Condo),Bungaraya Condominium,nan,Shah Alam,Selangor,40150,,3.112455,101.571426,,2,Default AC heuristic,0,3.07,1.54
460899,FCC31F95-5CF8-4D3A-AB4A-07F75FD21B75,[Restricted] THE LEAFZ BY EXSIM (Residential Condo),The Leafz by EXSIM,nan,Kuala Lumpur,Kuala Lumpur,57100,,3.085547,101.695,,2,Default AC heuristic,0,5.26,2.63
460898,124D4DDC-4103-4C81-9350-3C36F20B6627,[Restricted] SUBANG PARKHOMES (Residential Condo),Subang Parkhomes,nan,Subang Jaya,Selangor,47500,,3.077366,101.5718,,2,Default AC heuristic,0,2.81,1.41
460897,5B1F4B99-D626-44F9-82BF-7EA2334B3A05,SUNWAY PYRAMID (Public Area),"3, Jalan PJS 11/15, Bandar Sunway",nan,Petaling Jaya,Selangor,47500,,3.072698,101.604675,,6,Venue multi-bay heuristic,0,4.25,0.71
460896,DCB1F234-AAA4-4AD9-AEE1-C96387AAAA9A,SILK SKY SERVICED APARTMENT (Residential Condo),Silk Sky Service Apartment,nan,Seri Kembangan,Selangor,43300,,3.027286,101.750374,,1,Default AC heuristic,0,2.17,2.17
460895,C61FE2C8-788A-4723-BE2F-779561D6A6B7,[Restricted] SPRINGVILLE RESIDENCE (Residential Condo),Springville Residence,nan,Seri Kembangan,Selangor,43300,,3.000393,101.679359,,1,Default AC heuristic,0,1.69,1.69
460894,82AF8E86-A30D-455B-BC59-462BB5A04079,[Restricted] BSP 21 BLOCK G (Residential Condo),"Block G, BSP21",nan,Jenjarom,Selangor,42610,,2.94521,101.590233,,1,Default AC heuristic,0,1.23,1.23
460893,D224AF28-C306-45AF-9104-3FCCEE1F88CD,[Restricted] BSP 21 BLOCK B & D (Residential Condo),BSP21,nan,Jenjarom,Selangor,42610,,2.942995,101.589699,,2,Default AC heuristic,0,2.46,1.23
460892,52D3E9FB-2A6A-423A-A415-DBB1A0696A8D,GRAND SWISS-BELHOTEL (Commercial),Grand Swiss-Belhotel Melaka,nan,Melaka,Melaka,75300,,2.210585,102.24588,,3,Venue multi-bay heuristic,0,4.32,1.44
460665,6374AB88-EC39-47A8-9EBD-2E237E23A11D,Perdana View Condo,"No. 21, Jalan PJU 8/1.",Damansara Perdana,Petaling Jaya,Selangor,47820,,3.170716173,101.6024542,,2,Default AC heuristic,0,5.5,2.75
460649,7E441959-4969-4FF3-8E3D-85A2CCC8422F,Machap R&R Southbound,North-South Expy,nan,Simpang Renggam,Johor,86200,,1.8962638,103.2283679,,2,Default AC heuristic,0,5.82,2.91
460551,16D7CD6E-4BBB-4D66-83DC-A2F8A072AF62,Marc Residence,Jalan Song Ban Kheng,nan,Bukit Mertajam,Pulau Pinang,14000,,5.349489516,100.459979,,1,Default AC heuristic,0,4.86,4.86
460247,EDCDEE64-F4DB-47DC-AF0B-2588B047FB77,Petron Bandar Tasik Puteri EB by DC Handal,Petron Bandar Tasik Puteri EB,Jalan Tasik Puteri,Rawang,Selangor,48020,,3.29193609,101.4792615,,1,Default AC heuristic,0,4.3,4.3
460234,CD447160-16DF-4C17-952F-DD3618889F90,GO TO-U EDUCITY HUB @ ISKANDAR PUTERI,"NO 3, STUDENT HUB",JLN KAMPUNG LALANG,ISKANDAR PUTERI,Johor,79250,,1.431965293,103.6172703,,2,Default AC heuristic,0,4.18,2.09
459797,C392AD59-02FB-4FB5-9B5E-67B088AB50C8,MYDIN KUBANG KERIAN (Shopping Mall),Mydin Kubang Kerian,nan,Kota Bharu,Kelantan,15200,,6.097991,102.277771,,2,Default AC heuristic,0,4.05,2.02
459796,D1EBCE42-03F6-4BAD-87AE-037785D83D12,THE WALK @ RIVERSON (Shopping Mall),Riverson,nan,Kota Kinabalu,Sabah,8810,,5.969017,116.064499,,2,Default AC heuristic,0,3.32,1.66
459795,BB4B2960-AE1A-476B-91F4-205E5DA29685,LIDO PLAZA 2 (Shopping Mall),Lido Plaza,nan,Penampang,Sabah,88300,,5.936645,116.082413,,2,Default AC heuristic,0,4.41,2.21
459794,AD69535C-1CE4-4047-B901-55576DA34803,PERMAIPURA GOLF & COUNTRY CLUB (Golf Course),Permaipura Golf & Country Club,nan,Bedong,Johor,8100,,5.728236,100.527924,,2,Default AC heuristic,0,2.45,1.23
459793,F71F9466-FA14-436A-A432-AE61A760AAFC,CINTA SAYANG RESORT (Hotel),Cinta Sayang Resort,nan,Sungai Petani,Johor,8000,,5.659039,100.518845,,5,Venue multi-bay heuristic,0,4.4,0.88
459792,25EE1F6A-BC49-402C-B673-673CEE017631,PUREST HOTEL SUNGAI PETANI (Hotel),Purest Hotel Sungai Petani Kedah,nan,Sungai Petani,Kedah,8000,,5.614636,100.482018,,7,Venue multi-bay heuristic,0,4.35,0.62
459791,FAC935B7-922D-4795-89B2-7078683AB26D,THE REEF Pulau Pinang (Residential Condo),The Reef,nan,Batu Ferringhi,Pulau Pinang,11100,,5.477899,100.269989,,2,Default AC heuristic,0,3.45,1.73
459790,7E457D2B-3297-42F6-8D30-05F87CE65A1A,[Restricted] SURIN CONDOMINIUM (Residential Condo),SURIN BLOCK A,nan,TANJUNG BUNGAH,Pulau Pinang,11200,,5.466606,100.274902,,2,Default AC heuristic,0,5.47,2.73
459789,28AB40F6-DBB3-4187-96EE-02DF805FE4EF,[Restricted] ONE TANJONG (TOWER A) (Residential Condo),One Tanjong by Lone Pine Group,nan,George Town,Pulau Pinang,11200,,5.466416,100.293724,,2,Default AC heuristic,0,1.4,0.7
459788,4B510187-3CDB-48BB-817E-D5F46A01642E,[Restricted] PEARL VIEW CONDOMINIUM (Residential Condo),Pearl View Condominium,nan,Pulau Pinang Hill,Pulau Pinang,11200,,5.464443,100.295944,,2,Default AC heuristic,0,4.73,2.37
459787,7FFFF6AB-F29D-4C8D-8990-4503D84B27E0,[Restricted] TAMAN LEADER CONDOMINIUM (Residential Condo),"1, Jalan Chee Seng 13, Taman Leader, 11200 Tanjung Bungah, Pulau Pinang, Malaysia",nan,Tanjung Bungah,Pulau Pinang,11200,,5.463445,100.277107,,1,Default AC heuristic,0,3.28,3.28
459786,22DC6BA8-1478-49FE-95B7-7E666608F898,MBPP PASAR TANJONG BUNGAH (Public Area),Pasar & Kompleks Makan Tanjung Bungah/தஞ்சோங் பூங்கா சந்தை வளாகம்,nan,Tanjung Bungah,Pulau Pinang,11200,,5.46335,100.28508,,1,Default AC heuristic,0,1.69,1.69
459785,8BFFB673-2BB8-4EC4-AA14-3549ACB40D6C,ANGSANA TELUK BAHANG Pulau Pinang (Hotel),"Angsana Teluk Bahang, Pulau Pinang",nan,Tanjong Bungah,Pulau Pinang,11050,,5.461868,100.219742,,1,Default AC heuristic,0,1.59,1.59
459784,76B9FD61-47C3-4FCF-86DF-21E9AE0D772E,[Restricted] QUAYSIDE CONDOMINIUM (Residential Condo),Quayside Condominium,nan,Georgetown,Pulau Pinang,13050,,5.460772,100.312714,,2,Default AC heuristic,0,2,1
459783,E3562F6E-7C2A-40BA-9973-44350E1E29C2,[Restricted] TAMARIND CONDO Pulau Pinang (Residential Condo),Tamarind Pulau Pinang,nan,Tanjung Tokong,Pulau Pinang,10470,,5.456723,100.309563,,2,Default AC heuristic,0,3.48,1.74
459782,1DD9DAD2-FE3B-4B1F-A2BC-A3D7DBC88080,[Restricted] I-SANTORINI CONDOMINIUM (Residential Condo),I-Santorini,nan,Tanjung Tokong,Pulau Pinang,10470,,5.455225,100.309143,,1,Default AC heuristic,0,2.06,2.06
459781,6E81C87C-3375-4F71-BA7E-8BAE2B093B45,[Restricted] MARINOX SKY VILLAS (Residential Condo),Marinox Sky Villas,nan,Tanjung Tokong,Pulau Pinang,10470,,5.454387,100.310135,,2,Default AC heuristic,0,3.97,1.98
459780,0343D772-B641-4BD8-A52D-7545A881F420,[Restricted] THE BREZZA CONDOMINIUM BLOCK A (Residential Condo),The Brezza Condominium,nan,Tanjung Tokong,Pulau Pinang,10470,,5.453275,100.308083,,1,Default AC heuristic,0,1.99,1.99
459778,C68CFB75-F289-4FF1-90F3-D51C13B5E658,[Restricted] TANJUNG PARK CONDOMINIUM (OUTDOOR) (Residential Condo),Persiaran Lengkuas,nan,Pulau Pinang,Pulau Pinang,11200,,5.450167,100.304626,,1,Default AC heuristic,0,2.72,2.72
459777,2F33F0C8-8DD8-4EB6-B061-B2F1AB347DD9,MBPP PRECINT 10 (Public Area),Precinct 10,nan,George Town,Pulau Pinang,10470,,5.448701,100.30558,,2,Default AC heuristic,0,4.15,2.07
459776,22C0CA07-EE44-41CC-B29A-9C0FE23F2BC6,[Restricted] MONT RESIDENCES Pulau Pinang (Residential Condo),Mont Residence,nan,Georgetown,Pulau Pinang,10470,,5.446555,100.29882,,1,Default AC heuristic,0,2.44,2.44
459775,46BFA6B3-2D3A-4459-84A7-B825566A5049,G HOTEL GURNEY (Hotel),G Hotel Gurney,nan,Georgetown,Pulau Pinang,10250,,5.437557,100.310631,,4,Venue multi-bay heuristic,0,5.62,1.41
459774,444E5516-11B8-4956-A11E-96BD9CDF6E46,G KELAWAI HOTEL (Hotel),G Hotel Kelawai,nan,Georgetown,Pulau Pinang,10250,,5.435551,100.309929,,7,Venue multi-bay heuristic,0,6.39,0.91
459773,0FC4A99A-89F8-4471-8882-B78232702848,MBPP JALAN CONCORDIA (Public Area),Jalan Concordia,nan,George Town,Pulau Pinang,10250,,5.434278,100.314377,,1,Default AC heuristic,0,2.98,2.98
459772,374DD681-C390-4017-B5CC-59983BC44826,[Restricted] SETIA V RESIDENCES (Residential Condo),SETIA V RESIDENCES,nan,GEORGE TOWN,Pulau Pinang,10250,,5.432878,100.314827,,1,Default AC heuristic,0,2.48,2.48
459771,244F56FE-3604-47C0-8716-E1B64B59EFBE,MBPP JALAN ARRATOON (Public Area),Jalan Arratoon,nan,George Town,Pulau Pinang,10450,,5.422729,100.323074,,2,Default AC heuristic,0,2.84,1.42
459770,BB3F774E-6148-418A-A744-CFCBA93D5F02,MBPP LEBUH UNION (Public Area),Lebuh Union,nan,George Town,Pulau Pinang,10200,,5.419094,100.342606,,1,Default AC heuristic,0,1.9,1.9
459769,48F78694-9BE1-43B6-889F-190D4D0E058B,MBPP LEBUH DICKENS (Public Area),Ee Beng Vegetarian Food,nan,George Town,Pulau Pinang,10050,,5.418923,100.330742,,1,Default AC heuristic,0,1.74,1.74
459768,5347F6C7-3322-4F84-BC2B-926BEC3E11A2,[Restricted] ELEMENTS GARDEN (Residential Condo),Elements Garden,nan,Butterworth,Pulau Pinang,13400,,5.417818,100.382507,,2,Default AC heuristic,0,1.94,0.97
459767,E6952273-3C0B-4351-B432-CC00F3CF403A,MBPP LEBUH CINTRA (Public Area),Wen Chang Hainan Chicken Rice,nan,George Town,Pulau Pinang,10200,,5.417183,100.333359,,2,Default AC heuristic,0,1.61,0.81
459766,10A025CE-6C50-4BAC-8577-3AF4FE303FAF,MBPP LEBUH PASAR (LITTLE INDIA) (Public Area),Pulau Pinang Little India,nan,George Town,Pulau Pinang,10200,,5.416258,100.340462,,1,Default AC heuristic,0,3.18,3.18
459765,1CAD7527-AFD6-430C-B076-32C9606EAFC8,MBPP GAT LEBUH GEREJA (Public Area),Gat Lebuh Gereja,nan,George Town,Pulau Pinang,10300,,5.415994,100.343353,,2,Default AC heuristic,0,5.04,2.52
459764,5E7A6491-155D-44C2-8D8D-FD79F0B8D61A,MBPP GAT LEBUH CHINA (Public Area),Wisma Yeap Chor Ee,nan,George Town,Pulau Pinang,10300,,5.415108,100.342506,,1,Default AC heuristic,0,2.03,2.03
459763,7A1DE08C-7D79-42AE-9380-298A4D7BCE08,1ST AVENUE Pulau Pinang (Shopping Mall),1st Avenue Mall,nan,Georgetown,Pulau Pinang,10300,,5.413373,100.331314,,7,Venue multi-bay heuristic,0,5.57,0.8
459762,F9714195-BAF4-4262-93FC-326566625207,CYC HERITAGE HOTEL (Hotel),CYC Heritage Hotel,nan,George Town,Pulau Pinang,10300,,5.408709,100.331421,,6,Venue multi-bay heuristic,0,5.64,0.94
459761,4B611976-B7F1-44BA-A9BB-BAB2B8F05E11,[Restricted] SANDILANDS CONDOMINIUM (Residential Condo),Sandilands Condominium,nan,Georgetown,Pulau Pinang,10300,,5.405225,100.329376,,2,Default AC heuristic,0,2.32,1.16
459760,7BB1A660-FD8E-4546-BE2B-BF9C55420647,MBPP JALAN PASAR (KEK LOK SI) (Public Area),"617, Jalan Balik Pulau, Pekan Ayer Itam",nan,Air Itam,Pulau Pinang,11500,,5.401554,100.27655,,1,Default AC heuristic,0,2.76,2.76
459759,D25781E6-B0F3-40B7-92DB-16B687D26A63,[Restricted] WOODSBURY SUITES (Residential Condo),Woodsbury Suites Butterworth,nan,Butterworth,Pulau Pinang,12100,,5.39948,100.374596,,2,Default AC heuristic,0,2.32,1.16
459758,8A3FE00B-0659-4D34-9137-0A4A0AB57CCE,MBPP PERSIARAN KARPAL SINGH (Public Area),Family Mart Karpal Singh,nan,Jelutong,Pulau Pinang,11600,,5.398926,100.329536,,1,Default AC heuristic,0,1.36,1.36
459757,009A8531-393C-41AF-A717-A171303EACB4,[Restricted] BOULEVARD Pulau Pinang CONDOMINIUM (Residential Condo),Boulevard Condominium,nan,Ayer Itam,Pulau Pinang,11500,,5.397755,100.294464,,1,Default AC heuristic,0,2.11,2.11
459756,66D67430-B0C5-48FF-9E05-56239ABFBCD3,[Restricted] LUMINARI RESIDENCES (Residential Condo),Luminari Residences,nan,Butterworth,Pulau Pinang,12100,,5.397302,100.373077,,2,Default AC heuristic,0,3.46,1.73
459755,A9B11D81-B62F-4754-81FF-D3FF298DBBCC,[Restricted] THE SPRING CONDOMINIUM (Residential Condo),The Spring Condominium,nan,Sungai Pinang,Pulau Pinang,11600,,5.396901,100.325943,,1,Default AC heuristic,0,2.38,2.38
459754,0565F9BC-A230-43FB-8DFF-7FFEE943D21B,MBPP JALAN MASJID NEGERI (Public Area),Jalan Masjid Negeri,nan,Jelutong,Pulau Pinang,11600,,5.396493,100.304092,,2,Default AC heuristic,0,2.17,1.08
459753,E0C18FA5-F209-4578-B2E9-9AF9CE8E33C0,SUNWAY MEDICAL CENTRE Pulau Pinang (LEVEL 1B) (Medical),Sunway Medical Centre Pulau Pinang,nan,Perai,Pulau Pinang,13700,,5.395644,100.396744,,7,Venue multi-bay heuristic,0,9.33,1.33
459752,9BCFA047-65BA-453F-B18E-8AA5E78C650F,MBPP JALAN LENGGONG (Public Area),Jalan Lenggong,nan,Jelutong,Pulau Pinang,11600,,5.395393,100.31691,,1,Default AC heuristic,0,3.55,3.55
459751,DAE1316D-9378-4103-962F-FB3ED76F2BC2,MBPP JALAN TAN SRI TEH EWE LIM (Public Area),Jalan Tan Sri Teh Ewe Lim,nan,Jelutong,Pulau Pinang,11600,,5.393008,100.306,,1,Default AC heuristic,0,2.26,2.26
459750,A6CBCA75-80CB-40F6-A41F-5F85422F3163,MBPP PASAR BATU LANCHANG (Public Area),BATU LANCHANG,nan,JELUTONG,Pulau Pinang,nan,,5.389948,100.305725,,2,Default AC heuristic,0,2.36,1.18
459749,1B65B6D8-15AA-409F-B82F-1DE046082BB6,[Restricted] BAYSWATER CONDOMINIUM (Residential Condo),Bayswater Resort Condominium,nan,Gelugor,Pulau Pinang,11700,,5.376084,100.314514,,7,Venue multi-bay heuristic,0,4.51,0.64
459748,70414430-F133-48EF-8E20-C26B75BC486E,[Restricted] PLATINO CONDOMINIUM (Residential Condo),"no 1, Persiaran Tunku Kudin",nan,Jelutong,Pulau Pinang,11700,,5.376035,100.312653,,1,Default AC heuristic,0,2.07,2.07
459747,32D45CD2-946D-4E91-9C4F-18AF0B257B93,"MBPP PASAR JALAN PERMAI, GELUGOR (Commercial)",Pasar Jalan Permai,nan,Pulau Pinang,Pulau Pinang,nan,,5.371862,100.301521,,2,Default AC heuristic,0,5.5,2.75
459746,6B9C69CB-7C3E-4B88-8A84-9D4D8B7B583D,MYDIN BUKIT MERTAJAM (Shopping Mall),Mydin Mall Bukit Mertajam,nan,Bukit Mertajam,Pulau Pinang,13600,,5.368251,100.414551,,6,Venue multi-bay heuristic,0,4.33,0.72
459745,03EFF070-B688-452C-BAD1-53F038DE939B,MYDIN GONG BADAK (Shopping Mall),Mydin Mall Gong Badak,nan,Kuala Terengganu,Terengganu,21300,,5.355653,103.096504,,6,Venue multi-bay heuristic,0,5.66,0.94
459744,B30A10FD-B1E5-4C53-BEC2-EAE151B92BBB,[Restricted] PANGSAPURI SERI JAYA BUKIT MERTAJAM (Residential Condo),Pangsapuri Seri Jaya,nan,Bukit Mertajam,Pulau Pinang,14000,,5.349842,100.472855,,1,Default AC heuristic,0,3.18,3.18
459743,B7681568-D226-4C70-8EAB-3BFFC17CDCFD,[Restricted] BERJAYA CONDOMINIUM (Residential Condo),Berjaya Condominium,nan,Bukit Mertajam,Pulau Pinang,14000,,5.348321,100.470856,,2,Default AC heuristic,0,3.4,1.7
459742,677D6749-BBC0-4DD5-80FF-B4A1EB720725,[Restricted] ICONIC SKIES (Residential Condo),Iconic Skies,nan,Bayan Lepas,Pulau Pinang,11900,,5.342919,100.281273,,2,Default AC heuristic,0,4.43,2.21
459741,9061E81F-2CF1-4B99-89D2-0A630BC841D7,MBPP KOMPLEX SUKAN BANDARAYA RELAU (Commercial),Kompleks Sukan Bandaraya Relau,nan,Bayan Lepas,Pulau Pinang,11900,,5.342166,100.271591,,2,Default AC heuristic,0,2.73,1.36
459740,5443180A-43ED-4D97-96AE-29151114870F,[Restricted] QUAY WEST RESIDENCE (Residential Condo),QuayWest Residence,nan,Bayan Lepas,Pulau Pinang,11900,,5.342048,100.310806,,2,Default AC heuristic,0,3.5,1.75
459739,BD95B380-EEFF-486D-B482-099DA1764133,[Restricted] PUTRA PLACE CONDOMINIUM (Residential Condo),"118, Persiaran Bayan Indah",nan,Bayan Lepas,Pulau Pinang,11900,,5.340545,100.309975,,1,Default AC heuristic,0,1.57,1.57
459738,2B2F70FA-78B1-468D-932E-8FB0D63ED0D4,MAYANG MALL (Shopping Mall),Mayang Mall,nan,Kuala Terengganu,Terengganu,20000,,5.337903,103.143982,,4,Venue multi-bay heuristic,0,2.58,0.65
459737,8B97FBB5-3EF5-41DA-9A9B-BDD2D6AF0043,MBPP GOLDEN TRIANGLE (Public Area),GOLDEN TRIANGLE,nan,Bayan Lepas,Pulau Pinang,11900,,5.33707,100.270882,,1,Default AC heuristic,0,1.66,1.66
459736,EE2B80B5-C963-4E1F-B630-29D04DE78E63,[Restricted] IMPERIAL RESIDENCES CONDOMINIUM (Residential Condo),Imperial Residence Condominium,nan,Bayan Lepas,Pulau Pinang,nan,,5.334093,100.271492,,2,Default AC heuristic,0,3.84,1.92
459735,6616476E-C123-4748-9F2B-6F1A139AE8B9,MBPP MEDAN KAMPUNG RELAU (Public Area),Medan Kampung Relau,nan,Bayan Lepas,Pulau Pinang,11900,,5.333898,100.294701,,1,Default AC heuristic,0,1.89,1.89
459734,598075A6-38A0-450C-9EA4-21B086452C78,MBPP 7 ELEVEN BALIK PULAU (Public Area),KEDAI JERUK TEIK SEANG,nan,Balik Pulau,Pulau Pinang,11000,,5.333833,100.21698,,2,Default AC heuristic,0,4.3,2.15
459733,D2D242BC-8A51-48EB-BEAD-C8921A4C9B38,[Restricted] NOVUS RESIDENCES (Residential Condo),Novus Residences,nan,Bayan Lepas,Pulau Pinang,11900,,5.332276,100.298653,,2,Default AC heuristic,0,3.27,1.63
459732,7ED44E4F-B41D-42AF-8518-64C892867EF8,PROTON e.MAS KUALA TERENGGANU (Car Showroom),Proton Indahsari Otomobil 3S - K.Terengganu (065639-M),nan,Kuala Terengganu,Terengganu,20400,,5.315983,103.150764,,1,Default AC heuristic,0,2.38,2.38
459731,AD67D154-FCC0-4E26-8993-2AB1406DE679,[Restricted] SOLARIA RESIDENCES (Residential Condo),Solaria Residences,nan,Bayan Lepas,Pulau Pinang,11900,,5.300654,100.265976,,2,Default AC heuristic,0,3.48,1.74
459730,CAEC9630-5B65-4B40-8485-4CC94A2003FE,MBPP PASAR KELICAP (Public Area),Kompleks Pasar Kelicap,nan,Bayan Lepas,Pulau Pinang,11900,,5.3005,100.257675,,1,Default AC heuristic,0,2.34,2.34
459729,3339D13F-7232-44CA-B0BF-EA08C1262347,[Restricted] ECO BLOOM CONDOMINIUM (Residential Condo),ECO BLOOM @ ECO MEADOWS,nan,SIMPANG AMPAT,Pulau Pinang,14100,,5.25882,100.469116,,2,Default AC heuristic,0,4.39,2.19
459728,C27B60C1-41A7-4F1A-9D34-A75393D58CE5,[Restricted] SUASANA @ UTROPOLIS (Residential Condo),"Jalan Cassia Barat 2, Bandar Cassia",nan,Bandar Cassia,Pulau Pinang,nan,,5.241358,100.435699,,1,Default AC heuristic,0,2.01,2.01
459727,F1881F60-55AA-4248-AFFA-D62219B54D9C,BEVERLY HOTEL TAIPING (FOOD AVENUE) (Hotel),Beverly Hotel,nan,Taiping,Perak,34000,,4.864984,100.73056,,7,Venue multi-bay heuristic,0,4.11,0.59
459726,087CE79F-FAB2-4767-847C-1885748D3299,FLEMINGTON HOTEL TAIPING (Hotel),"no 1, Jalan Samanea Saman",nan,Taiping,Perak,34000,,4.847657,100.750282,,2,Default AC heuristic,0,1.98,0.99
459725,1D63C088-5E97-4787-91E0-41F5ABDD5640,MYDIN MERU (Shopping Mall),MYDIN MERU RAYA,nan,Ipoh,Perak,30020,,4.671015,101.074158,,2,Default AC heuristic,0,1.79,0.89
459724,A6FFE629-E684-4140-BA97-78EB40FAA3E7,[Restricted] TASEK FAMILY HOMESTAY (Homestay),"no. 42, Regat Tasek Jaya 2",nan,Ipoh,Perak,31400,,4.650584,101.10733,,1,Default AC heuristic,0,2.34,2.34
459723,BE19148F-622F-4558-A64B-3E9A0E4EC18F,THE HAVEN ALL SUITE RESORT @ IPOH (BLOCK A) (Hotel),"The Haven All Suite Resort, Ipoh",nan,Ipoh,Perak,31150,,4.63739,101.163017,,6,Venue multi-bay heuristic,0,3.45,0.58
459722,4155B710-76A6-444A-A0EF-DEFB55B8E587,FESTIVAL WALK @ IPOH (Commercial),Medan Ipoh Bistari (IP2),nan,Ipoh,Perak,31400,,4.619425,101.119522,,1,Default AC heuristic,0,2.44,2.44
459721,3194E513-81C5-44B5-A85B-B653217E1E1D,[Restricted] THE COVE HILLSIDE RESIDENCE BLOCK A (Residential Condo),The Cove Hillside Residence,nan,Ipoh,Perak,31400,,4.613544,101.13533,,2,Default AC heuristic,0,2.44,1.22
459720,86805A9D-8714-4284-8C3B-D47BB3474654,M ROOF HOTEL & RESIDENCES (Hotel),M Roof Hotel & Residences,nan,Ipoh,Perak,31400,,4.612164,101.105164,,5,Venue multi-bay heuristic,0,3.68,0.74
459719,86E5B1D3-44F7-4A00-8F56-87F69F9376DF,REGALODGE HOTEL IPOH (Hotel),Regalodge Hotel Ipoh,nan,Ipoh,Perak,30450,,4.600909,101.08696,,5,Venue multi-bay heuristic,0,3.65,0.73
459718,94A69DDC-7B1B-4FBD-ABED-CD5EC442012A,[Restricted] PRIMA IPOH CONDOMINIUM (Residential Condo),Prima Ipoh Condominium,nan,Ipoh,Perak,30350,,4.595509,101.097816,,2,Default AC heuristic,0,2.55,1.28
459717,3E9E9207-801E-4C86-BC87-65FB59381566,[Restricted] DAMAIPURI CONDOMINIUM (Residential Condo),Damaipuri Condominium,nan,Ipoh,Perak,30250,,4.585387,101.091469,,2,Default AC heuristic,0,2.67,1.33
459716,946A8B86-1410-4094-B0FD-F979BA30C8A9,[Restricted] PARKVIEW RESIDENCE (Residential Condo),Parkview Homes,nan,Ipoh,Perak,31350,,4.542344,101.106583,,2,Default AC heuristic,0,3.03,1.52
459715,A1B52548-28AE-4463-89BE-F78D6E5F9F96,ECONSAVE CASH & CARRY KAMPAR (Grocery),Econsave Kampar,nan,Kampar,Negeri Sembilan,31900,,4.32785,101.146538,,1,Default AC heuristic,0,2.85,2.85
459714,6EE81C32-4772-463D-9CB7-A175032BCCD8,THE KASTURI RESORT CHERATING (Hotel),The Kasturi Resort Cherating,nan,Kuantan,Pahang,26080,,4.163994,103.410583,,5,Venue multi-bay heuristic,0,3.1,0.62
459713,AD175DCF-6DF2-4497-9A0D-880B143A168C,"BLH ECOENERGY , KUANTAN (Commercial)","PL-A1, Ground Floor, Lorong Seri Setali 1,",nan,Kuantan,Pahang,25300,,3.841507,103.336868,,2,Default AC heuristic,0,2.67,1.34
459712,F7787121-82F7-43B7-9320-FF180EFAAA4A,KEMAMAN KOPITIAM JALAN BESERAH (Restaurant),Jalan Beserah,nan,Kuantan,Pahang,25250,,3.827981,103.340355,,1,Default AC heuristic,0,1.66,1.66
459711,D912C9B4-62F5-49D1-AE55-AFC841229941,ZENITH HOTEL KUANTAN (Hotel),The Zenith Hotel,nan,Kuantan,Pahang,25200,,3.819549,103.325966,,7,Venue multi-bay heuristic,0,4.14,0.59
459710,2142DCDB-6802-486C-8F38-F881FDE4B8B6,EMPIRE RESTAURANT (Restaurant),Empire Seafood Restaurant,nan,Kuantan,Pahang,25000,,3.817081,103.329659,,2,Default AC heuristic,0,2.77,1.39
459709,5749C4F4-BE9E-4889-8A83-119EE5AE35D4,MEGA VIEW HOTEL (Hotel),"567, Jalan Besar",nan,Kuantan,Pahang,25000,,3.805526,103.329231,,1,Default AC heuristic,0,1.66,1.66
459708,6265224F-7F79-4181-A13D-5426EB62FA0E,MAJLIS BANDARAYA KUANTAN (MBK) (Commercial),Jalan Tanah Putih,nan,Kuantan,Pahang,25100,,3.797902,103.322044,,1,Default AC heuristic,0,2.3,2.3
459707,DAC42F4B-BE84-4E8F-9BFD-8DF91623ADC5,RESTORAN SENTOSA RAUB (Restaurant),Restaurant Sentosa (Raub),nan,Raub District,Pahang,27600,,3.754591,101.853226,,1,Default AC heuristic,0,3.31,3.31
459706,0C840AD0-EB61-4538-867F-22F8E89131E6,HOTEL GREEN PARK TEMERLOH (Hotel),Hotel Green Park,nan,Temerloh,Pahang,28000,,3.443756,102.413109,,3,Venue multi-bay heuristic,0,3.89,1.3
459705,D4750863-1FED-4720-8985-F19553494755,"[Restricted] RAINTREE BATU CAVES, SELANGOR (Residential Condo)",Taman Raintree,nan,Batu Caves,W.P. Kuala Lumpur,68100,,3.245793,101.68248,,2,Default AC heuristic,0,4.51,2.26
459704,4E488385-9F44-44F1-A795-5097852B9953,SELAYANG CAPITOL KOMPLEX (Shopping Mall),Selayang Capitol Kompleks,nan,Batu Caves,W.P. Kuala Lumpur,68100,,3.243213,101.649673,,2,Default AC heuristic,0,1.85,0.92
459703,68A7DBDA-36DB-44E7-80FE-2F40AC65B0DE,[Restricted] NADAYU 63 (Residential Condo),Nadayu 63,nan,Kuala Lumpur,Kuala Lumpur,53100,,3.22253,101.752602,,1,Default AC heuristic,0,2.89,2.89
459702,9C3E0135-B156-44D4-8614-794CB4EC8276,[Restricted] NADAYU 62 (Residential Condo),"8a, Jalan Melawati",nan,Kuala Lumpur,Kuala Lumpur,53100,,3.221433,101.75145,,2,Default AC heuristic,0,5.13,2.56
459701,54C4DB1A-2E79-4541-B1A2-44D90D742919,[Restricted] SURIA PUTRA RESIDENCE (Residential Condo),Suria Putra,nan,Sungai Buloh,Selangor,47000,,3.218914,101.555115,,6,Venue multi-bay heuristic,0,7.51,1.25
459700,072A44E8-BDE8-4256-B501-D83AB0D7313E,[Restricted] GAYA APARTMENT (Residential Condo),Gaya Apartment Block 6,nan,Kuala Lumpur,Kuala Lumpur,53100,,3.212245,101.745728,,2,Default AC heuristic,0,3.96,1.98
459699,78E9E787-4575-402E-AD7B-C65442908D3E,[Restricted] LAKEVILLE RESIDENCE TAMAN WAHYU (Residential Condo),"68, Jalan Sibu",nan,Jalan Ipoh,W.P. Kuala Lumpur,68100,,3.209003,101.668945,,2,Default AC heuristic,0,3.83,1.92
459698,B6E2DEB0-A9A6-490A-ACBD-53803A3AA0A2,SMILE HOTEL WANGSA MAJU (Hotel),"No.36&37, jalan metro wangsa,",nan,Setiawangsa,W.P. Kuala Lumpur,53300,,3.20335,101.736328,,1,Default AC heuristic,0,1.56,1.56
459697,D32D8CA9-E843-41BC-960A-E1CAE8A6584B,[Restricted] 1 SENTUL CONDOMINIUM (Residential Condo),1 Sentul Condominium,nan,Sentul,W.P. Kuala Lumpur,51100,,3.200006,101.689575,,1,Default AC heuristic,0,2.53,2.53
459696,1AD0B094-2EDD-4AA9-BBF5-6648BFF3C7E6,[Restricted] QUINN RESIDENCE (Residential Condo),Quinn Residence Official,nan,Kuala Lumpur,Kuala Lumpur,53300,,3.199034,101.738152,,1,Default AC heuristic,0,4.21,4.21
459695,23C3ECB0-D9F9-4CC8-80F2-672A1EB30C71,[Restricted] MH PLATINUM RESIDENCE (Residential Condo),MH Platinum Residence,nan,Gombak,W.P. Kuala Lumpur,53100,,3.198403,101.704727,,2,Default AC heuristic,0,3.5,1.75
459694,9269B84F-DEFF-4583-A139-6C82BE49A6F4,[Restricted] SPHERE DAMANSARA (Residential Condo),SPHERE Damansara,nan,Petaling Jaya,Negeri Sembilan,47830,,3.197164,101.599075,,2,Default AC heuristic,0,1.37,0.68
459693,C7DA9B7F-FFDC-4AD1-9E0C-363789266FE3,[Restricted] SERI RIANA RESIDENCES (Residential Condo),Seri Riana Residence,nan,Kuala Lumpur,Kuala Lumpur,53300,,3.196209,101.739929,,1,Default AC heuristic,0,4.35,4.35
459692,0E55D7AB-7252-4F9A-B88B-40A89AE56AE7,[Restricted] BENNINGTON RESIDENCES (Residential Condo),"1, Jalan Arena 1",nan,Kuala Lumpur,Kuala Lumpur,53200,,3.194103,101.714622,,1,Default AC heuristic,0,4.38,4.38
459691,8DCDB6B1-2DD1-40E7-97A4-08E2C46CFC55,SINCHOIWAH RESTAURANT SDN BHD (Restaurant),Sinchoiwah Restaurant,nan,Jinjang Kepong,W.P. Kuala Lumpur,52200,,3.194077,101.634285,,1,Default AC heuristic,0,0.94,0.94
459690,F0A22E9C-EBD7-479B-B51D-9E5EBEE5332F,[Restricted] DUA MENJALARA KONDOMINIUM (Residential Condo),Dua Menjalara Condominium,nan,Jinjang Kepong,W.P. Kuala Lumpur,52200,,3.192754,101.635666,,2,Default AC heuristic,0,2.34,1.17
459689,55F4E003-1310-46BA-9514-5062D3E3CE3C,[Restricted] FERA RESIDENCE (Residential Condo),Fera Residence,nan,Kuala Lumpur,Kuala Lumpur,53300,,3.191956,101.737511,,2,Default AC heuristic,0,4.63,2.32
459688,F99B60DE-AEC3-4C75-8746-6CF92C84986A,[Restricted] UNITED POINT RESIDENCES (Residential Condo),JALAN LANG EMAS,nan,Segambut,W.P. Kuala Lumpur,51200,,3.191765,101.653366,,2,Default AC heuristic,0,2.56,1.28
459687,9A89628D-1208-4A0B-8ECB-0AAF6CB265EA,[Restricted] LEXA RESIDENCE (Residential Condo),Lexa Residence,nan,Kuala Lumpur,Kuala Lumpur,53300,,3.191246,101.736626,,2,Default AC heuristic,0,3.81,1.9
459686,46903EAC-FDB8-40CB-B3CF-3844BDBB00B5,[Restricted] THE REACH @ TITIWANGSA (Residential Condo),The Reach @ Titiwangsa,nan,Setapak,W.P. Kuala Lumpur,53200,,3.18707,101.704689,,2,Default AC heuristic,0,1.85,0.92
459685,B334DB05-31BC-455F-B518-AF820B7F1218,[Restricted] HERITAGE CONDOMINIUM (Residential Condo),Heritage Condominium,nan,Setapak,W.P. Kuala Lumpur,53000,,3.186329,101.700851,,2,Default AC heuristic,0,3.48,1.74
459684,2E3CF843-C647-42A5-BC82-3795FB1D4CE8,[Restricted] BREEZEWAY RESIDENCES (Residential Condo),"12, Persiaran Residen",nan,Pandan Perdana,W.P. Kuala Lumpur,52200,,3.185125,101.634544,,1,Default AC heuristic,0,2.59,2.59
459683,709E7CE7-2A9F-42D4-8EF6-9B53B9FA54B3,[Restricted] ANJALI NORTH KIARA (Residential Condo),Anjali North Kiara,nan,Mont Kiara,W.P. Kuala Lumpur,51200,,3.183415,101.652992,,1,Default AC heuristic,0,2.19,2.19
459682,7F1881BA-0917-4FFC-8113-2261D1B9DCB0,[Restricted] THE FENNEL SENTUL EAST (Residential Condo),The Fennel Sentul East,nan,Sentul,W.P. Kuala Lumpur,51000,,3.182122,101.693649,,1,Default AC heuristic,0,1.29,1.29
459681,54551363-F9DE-4437-8925-35FEA24696AA,[Restricted] DAMANSARA FORESTA (Residential Condo),"Damansara Foresta Damansara Foresta Condominium, Persiaran Meranti, Bandar Sri Damansara,",nan,Bukit Damansara A,Negeri Sembilan,52200,,3.181285,101.612526,,1,Default AC heuristic,0,1.52,1.52
459680,4B67CC58-0FEF-4F71-9F03-E21E80B46EDD,[Restricted] ICON RESIDENCE MONT KIARA (Residential Condo),"20, Persiaran Dutamas",nan,Cheras,W.P. Kuala Lumpur,50480,,3.179405,101.663658,,1,Default AC heuristic,0,1.23,1.23
459679,D53A14AF-D63E-46BF-B6A4-184F3A7EAD75,[Restricted] CONCERTO NORTH KIARA CONDOMINIUM GROUND PARKING (Residential Condo),Concerto North Kiara,nan,Segambut,W.P. Kuala Lumpur,51200,,3.178471,101.658821,,1,Default AC heuristic,0,1.74,1.74
459678,455C4B67-4EF7-489A-B3DA-11B91027C7FA,[Restricted] RESIDENSI HARMONI 2 (Residential Condo),Residensi Harmoni 2,nan,Segambut,Negeri Sembilan,51200,,3.178458,101.644836,,2,Default AC heuristic,0,3.4,1.7
459677,DBF6B99C-5D34-41DB-AB20-4D3DA12680DA,[Restricted] VILLA ORKID CONDOMINIUM (Residential Condo),Villa Orkid,nan,Segambut,W.P. Kuala Lumpur,51200,,3.178057,101.644402,,1,Default AC heuristic,0,1.52,1.52
459676,B01D75B6-EBE9-4185-B014-83CDE11E7330,[Restricted] CONCERTO NORTH KIARA CONDOMINIUM BLOCK B (Residential Condo),Concerto North Kiara,nan,Mont Kiara,W.P. Kuala Lumpur,51200,,3.177837,101.658791,,2,Default AC heuristic,0,2.48,1.24
459675,B5710E19-4B88-409E-A9E1-EE4AD476759C,[Restricted] WEDGEWOOD RESIDENCES (Residential Condo),Wedgewood Residences,nan,Mont Kiara,W.P. Kuala Lumpur,50480,,3.174555,101.657722,,2,Default AC heuristic,0,2.54,1.27
459674,21C5520C-AF0B-49F8-BFAE-A96821E16CF2,[Restricted] PANGSAPURI ONE JELATEK (Residential Condo),One Jelatek Condominium,nan,Klang,Kuala Lumpur,54200,,3.173146,101.734619,,1,Default AC heuristic,0,4.5,4.5
459673,889DB6DE-D65C-4D97-899C-DB241698D654,[Restricted] HARTAMAS REGENCY 2 (Residential Condo),Hartamas Regency 2,nan,Kuala Lumpur,Kuala Lumpur,50480,,3.173123,101.66275,,1,Default AC heuristic,0,4.31,4.31
459672,9E220F6D-8248-4D47-9945-F1CD57291053,[Restricted] KIARAVILLE CONDOMINIUM (Residential Condo),Kiaraville,nan,Kuala Lumpur,Kuala Lumpur,50480,,3.172485,101.659172,,1,Default AC heuristic,0,8.55,8.55
459671,FA728FBA-C718-4021-8D61-2267FC459344,[Restricted] EXPRESSIONZ PROFESSIONAL SUITES (Residential Condo),Expressionz Professional Suites by EXSIM,nan,Kuala Lumpur,Kuala Lumpur,50400,,3.171628,101.712433,,1,Default AC heuristic,0,4.58,4.58
459670,591E5607-4898-486A-8F19-ACE69FF0EC2E,GURNEY MALL (Shopping Mall),Gurney Mall,nan,Keramat,W.P. Kuala Lumpur,54000,,3.171486,101.72126,,4,Venue multi-bay heuristic,0,3.4,0.85
459669,AB9EAB46-4CD0-461C-BCF9-3B362523C5E5,[Restricted] SUNWAY MONT RESIDENCE (Residential Condo),Sunway Mont Residences,nan,Mont Kiara,W.P. Kuala Lumpur,50480,,3.169577,101.647079,,3,Venue multi-bay heuristic,0,3.7,1.23
459668,FECDD4F8-129B-4598-A13F-9ABD09B56071,[Restricted] CHYMES GURNEY RESIDENCY (Residential Condo),Chymes Gurney Residency,nan,Keramat,W.P. Kuala Lumpur,54000,,3.169267,101.726036,,7,Venue multi-bay heuristic,0,6.67,0.95
459667,67C2D2A1-EE99-4F0D-BBCD-5E1ED7E8F6EA,[Restricted] LAMAN SURIA (Residential Condo),Laman Suria,nan,Mont Kiara,W.P. Kuala Lumpur,50480,,3.169065,101.650833,,5,Venue multi-bay heuristic,0,6.4,1.28
459666,BFBED4C7-A4B4-4322-B757-1BA6AC1786D1,[Restricted] CASA KIARA 2 CONDOMINIUM (Residential Condo),Casa Kiara 2,nan,Mont Kiara,W.P. Kuala Lumpur,50480,,3.168871,101.646622,,1,Default AC heuristic,0,3.42,3.42
459665,7EDAAD3C-283E-4F04-8576-8441802F4008,[Restricted] KIARA DESIGNERS SUITES (Residential Condo),Kiara Designer Suites - Serviced Condominium,nan,Mont Kiara,W.P. Kuala Lumpur,50480,,3.16838,101.647987,,1,Default AC heuristic,0,1.47,1.47
459664,BE0E9DBD-A877-4C23-BB9B-84D367CD630B,[Restricted] RESIDENSI 22 MONT KIARA (Residential Condo),"Residensi 22 Mont’Kiara, UEM Sunrise",nan,Kuala Lumpur,Negeri Sembilan,50480,,3.167785,101.650536,,1,Default AC heuristic,0,2.76,2.76
459663,8B056067-6175-42D1-9488-5925E6A64A26,[Restricted] KIARAMAS SUTERA CONDO (Residential Condo),Kiaramas Sutera,nan,Mont Kiara,W.P. Kuala Lumpur,50480,,3.167461,101.643799,,1,Default AC heuristic,0,1.49,1.49
459662,5AD8A01A-CCCD-4A13-9E75-479C77D5D54A,MENARA MUSTAPHA KAMAL (Commercial),Menara Mustapha Kamal,nan,Petaling Jaya,Selangor,47820,,3.167105,101.613358,,4,Venue multi-bay heuristic,0,3.99,1
459661,BB829296-9C64-480D-9CFC-9E6F9FB7ECC0,[Restricted] I-ZEN KIARA 2 (Residential Condo),I-zen @ Kiara 2,nan,Kuala Lumpur,Kuala Lumpur,50480,,3.165764,101.654022,,2,Default AC heuristic,0,7.73,3.87
459660,8A6E251D-4547-42C5-AFBB-777797E56EDE,[Restricted] FLORA MURNI CONDOMINIUM (Residential Condo),Flora Murni Condominium Mont Kiara,nan,Mont Kiara,W.P. Kuala Lumpur,50480,,3.165466,101.650841,,2,Default AC heuristic,0,2.22,1.11
459659,BE652704-865C-4CD1-9D96-7D2FA7F8AE82,[Restricted] LANAI KIARA CONDOMINIUM (Residential Condo),Lanai Kiara Condominium,nan,Mont Kiara,W.P. Kuala Lumpur,50480,,3.165365,101.648788,,2,Default AC heuristic,0,2.49,1.24
459658,7BA6D1F0-EDAC-4F43-869C-F47B9614C1F0,MERCU MUSTAPHA KAMAL (Commercial),Neo Damansara,nan,Petaling Jaya,Negeri Sembilan,47820,,3.164928,101.613968,,2,Default AC heuristic,0,2.88,1.44
459657,C7BAEA22-1987-42BD-8154-A11F74FACE95,MENARA TOKIO MARINE (Commercial),Tokio Marine Life Insurance Malaysia Bhd.,nan,Kuala Lumpur,Negeri Sembilan,50400,,3.16296,101.717049,,2,Default AC heuristic,0,2.95,1.47
459656,6CE78A26-E3BA-428C-9FB6-25A6A76FFA17,[Restricted] 202 DESA CAHAYA (Residential Condo),202DC Desa Cahaya,nan,Keramat,W.P. Kuala Lumpur,55000,,3.161202,101.725151,,2,Default AC heuristic,0,2.44,1.22
459655,F3D61BE2-377E-46FD-8D34-CA6657495864,GREAT EASTERN MALL (LEVEL P1) (Shopping Mall),Great Eastern Mall,nan,Kuala Lumpur,Kuala Lumpur,55000,,3.16059,101.736671,,6,Venue multi-bay heuristic,0,10.74,1.79
459654,D41C73E8-C3E0-4FFC-84CE-883110D042A4,[Restricted] NOVO AMPANG (Residential Condo),NOVO Ampang,nan,Kuala Lumpur,Kuala Lumpur,55000,,3.160543,101.739365,,1,Default AC heuristic,0,8.33,8.33
459653,DFDF4A56-5EBC-4879-9B18-DCED9D3822F9,[Restricted] GCB COURT (Residential Condo),GCB Court Condominium,nan,Kuala Lumpur,Kuala Lumpur,55000,,3.160379,101.748093,,1,Default AC heuristic,0,4.05,4.05
459652,C13B67A5-5D99-456F-8D5D-0A28134CF92E,GREAT EASTERN MALL OUTDOOR (Shopping Mall),Great Eastern Mall,nan,Kuala Lumpur,Kuala Lumpur,55000,,3.160346,101.736938,,4,Venue multi-bay heuristic,0,10.5,2.63
459651,1131A6FE-B61B-47C0-82CF-2AD4222D4AE8,INTERCONTINENTAL HOTEL KL (Hotel),"InterContinental Kuala Lumpur, an IHG Hotel",nan,KLCC,Kuala Lumpur,50450,,3.159514,101.717857,,5,Venue multi-bay heuristic,0,10.25,2.05
459650,9897B10B-2214-4463-8706-36245407BC59,[Restricted] THE FACE SUITES (Residential Condo),THE FACE Suites,nan,Kuala Lumpur,Kuala Lumpur,50250,,3.158533,101.703842,,2,Default AC heuristic,0,5.46,2.73
459649,7E889A01-4A4F-4EF5-A007-55E26E53E6E4,[Restricted] SERI HENING RESIDENCE (Residential Condo),"28, Jalan Ampang Hilir",nan,Kuala Lumpur,Kuala Lumpur,55000,,3.158469,101.737213,,2,Default AC heuristic,0,6.48,3.24
459648,A5B312CA-14B9-410C-803A-4A8FFA077E88,SHOPPES AT FOUR SEASON PLACE (Commercial),"145, Jln Ampang",nan,Kuala Lumpur,Kuala Lumpur,50088,,3.158184,101.713768,,2,Default AC heuristic,0,6.7,3.35
459647,29D3240C-C5ED-413C-9AD9-8466376D57C2,THE CURVE (Shopping Mall),The Curve,nan,Petaling Jaya,Selangor,47800,,3.157687,101.611427,,2,Default AC heuristic,0,3.36,1.68
459646,D81B4A5B-ADC8-4418-80A9-97481098232A,[PARTNER EVHUB] PERTAMA COMPLEX (Shopping Mall),Pertama Complex | First Shopping Center,nan,Jalan Duta,W.P. Kuala Lumpur,50100,,3.157289,101.695572,,5,Venue multi-bay heuristic,0,8.37,1.67
459645,F5850FFB-28E5-4EC0-9B79-760632793F6C,SOGO KL (Shopping Mall),Sogo,nan,Kuala Lumpur,Kuala Lumpur,50100,,3.156078,101.69529,,2,Default AC heuristic,0,4.89,2.45
459644,7C74F4A4-F071-496E-8056-7D701B17F3F9,CONCORDE HOTEL (Hotel),Concorde Hotel Kuala Lumpur,nan,KLCC,Kuala Lumpur,50250,,3.155288,101.705879,,4,Venue multi-bay heuristic,0,8.69,2.17
459643,4371171B-DEB3-4609-A31E-AFD2B6AB0DCF,[Restricted] DAMAI SURIA CONDOMINIUM (Residential Condo),Damai Suria,nan,Jln Ampang,W.P. Kuala Lumpur,55000,,3.154796,101.730087,,7,Venue multi-bay heuristic,0,6.19,0.88
459642,7020EDE1-20BF-4677-AF06-4893BED28D44,[Restricted] THE MANOR KL (Residential Condo),The Manor,nan,Jln Tun Razak,W.P. Kuala Lumpur,50450,,3.152432,101.719872,,1,Default AC heuristic,0,3.16,3.16
459641,029FD290-A194-412E-B4DE-AAA8D1071B6F,[Restricted] D'SURIA CONDOMINIUM (Residential Condo),D'Suria Condominium - Ampang,nan,Ampang,Selangor,68000,,3.151467,101.747108,,3,Venue multi-bay heuristic,0,6.37,2.12
459640,74BB8FE6-F02C-4811-B043-8192A952A1D7,10 SEMANTAN SUITES  (EAST WING) (Residential Condo),10 Semantan - East Wing Lobby,nan,Bukit Damansara A,Negeri Sembilan,50490,,3.151314,101.671043,,1,Default AC heuristic,0,2.74,2.74
459639,4C68BA38-D55D-45F3-A8E0-3FC7FF8E5BE8,[Restricted] 10 SEMANTAN SUITES (Residential Condo),10 Semantan Service Suite,nan,Bukit Damansara A,Negeri Sembilan,50490,,3.150833,101.670433,,2,Default AC heuristic,0,3.22,1.61
459638,4F5F0576-81F0-4D92-9FD8-669AF48FCDD0,[Restricted] CASA INDAH 2 CONDOMINIUM (Residential Condo),"2A, Persiaran Surian Tropicana Indah, PJU 3, Kota Damansara, 47410 Petaling Jaya, Selangor",nan,Tropicana Indah,Negeri Sembilan,nan,,3.149504,101.587891,,3,Venue multi-bay heuristic,0,2.5,0.83
459637,5E3478EE-6CE0-4409-80D9-9E99C255CD04,WISMA CHUANG (Commercial),Wisma Chuang,nan,Kuala Lumpur,Kuala Lumpur,50250,,3.149054,101.711357,,1,Default AC heuristic,0,3.81,3.81
459636,80B0C6EF-85E8-42E5-A8CD-3735D5A332D0,[Restricted] OPAL DAMANSARA CONDOMINIUM (Residential Condo),Sunway Opal Damansara Condominium,nan,Petaling Jaya,Negeri Sembilan,47810,,3.148517,101.598381,,7,Venue multi-bay heuristic,0,5.93,0.85
459635,0627E0A1-0F63-450B-A740-16506E0AADF0,[Restricted] SENTRIO PANDAN CONDOMINIUM (OUTDOOR) (Residential Condo),Sentrio Pandan,nan,Kuala Lumpur,Kuala Lumpur,55100,,3.148235,101.737785,,1,Default AC heuristic,0,3.97,3.97
459634,CC97FDF7-32BE-4BA6-A06A-A55B4EA344B7,JOURNAL HOTEL BUKIT BINTANG (Hotel),The Kuala Lumpur Journal Hotel,nan,Jalan Tun Ismail,Kuala Lumpur,50200,,3.148212,101.710533,,4,Venue multi-bay heuristic,0,8.75,2.19
459633,B26DBCD5-34CA-462C-8B9A-AA0D62CBA804,[Restricted] REGENCY TOWER (Residential Condo),Regency Tower,nan,Jln Ampang,W.P. Kuala Lumpur,50200,,3.147179,101.704971,,7,Venue multi-bay heuristic,0,5.66,0.81
459632,67EB54D0-BEF2-4E68-A865-15C762BD7126,[Restricted] DC RESIDENSI (Residential Condo),DC Residensi,nan,Kuala Lumpur,Negeri Sembilan,50490,,3.146692,101.660881,,1,Default AC heuristic,0,4.57,4.57
459631,6E3EC088-49E6-4351-B2AE-2F4C778CF95B,[Restricted] THE HORIZON RESIDENCES (Residential Condo),The Horizon Residences KL,nan,Jln Tun Razak,Kuala Lumpur,55000,,3.145089,101.722572,,2,Default AC heuristic,0,4.83,2.41
459630,BE3CB03A-CFD0-4629-945D-666C2AA0C762,MELIA HOTEL (Hotel),Meliá Kuala Lumpur,nan,Kuala Lumpur,Kuala Lumpur,51000,,3.143214,101.709831,,1,Default AC heuristic,0,3.73,3.73
459629,E8E2327C-D03C-48D9-8D1C-1409B3D540D5,PLAZA BERJAYA (Shopping Mall),Plaza Berjaya,nan,Jln Raja Laut,W.P. Kuala Lumpur,55100,,3.143053,101.709023,,1,Default AC heuristic,0,1.43,1.43
459628,F9439D73-E29D-42E2-9C4A-8C2CAF7A42A4,[Restricted] RESIDENSI PANDANMAS 2 (Residential Condo),Residensi Pandanmas 2,nan,Kampung Pandan,Negeri Sembilan,55100,,3.140326,101.737648,,2,Default AC heuristic,0,2.17,1.08
459627,66E6CBBE-4662-474D-9F10-2722E8510633,[Restricted] [PARTNER EVHUB] LUCENTIA RESIDENCES (Residential Condo),"2, Jalan Hang Tuah",nan,Jln Ampang,W.P. Kuala Lumpur,55100,,3.140128,101.708366,,2,Default AC heuristic,0,2.29,1.14
459626,27F35BC0-01BD-4585-9246-F09AC83E85C8,MENARA TAKAFUL (AC) (Commercial),Takaful Malaysia,nan,Kg Attap,W.P. Kuala Lumpur,50000,,3.139236,101.696205,,1,Default AC heuristic,0,0.86,0.86
459625,85271BE2-1D2F-4CC9-A215-18751EBEF06A,[Restricted] OPUS RESIDENCES (Residential Condo),Opus Residences,nan,Kg Attap,W.P. Kuala Lumpur,50460,,3.137392,101.699799,,1,Default AC heuristic,0,4.62,4.62
459624,F615FC66-B8BD-4A8F-A6B8-FD06E67D6373,[Restricted] Q SENTRAL (Commercial),Q Sentral,nan,Kuala Lumpur,Kuala Lumpur,50470,,3.136605,101.687714,,1,Default AC heuristic,0,4.58,4.58
459623,B913FD27-04B8-4978-83A4-8690FA360F73,[Restricted] SUNWAY BELFIELD TOWER B (Residential Condo),Residensi Sunway Belfield,nan,Kuala Lumpur,Negeri Sembilan,50460,,3.135861,101.696404,,4,Venue multi-bay heuristic,0,5.95,1.49
459622,7049EA7B-82D9-46B4-B820-3A8CED77E374,[Restricted] SUASANA SENTRAL LOFT (Residential Condo),"5, Jalan Stesen Sentral",nan,Jln Tun Razak,W.P. Kuala Lumpur,50470,,3.131384,101.683586,,1,Default AC heuristic,0,2.2,2.2
459621,21C44451-F65C-489D-86DC-6BE251BB54A1,[Restricted] LUMI TROPICANA (Residential Condo),Lumi Tropicana,nan,Petaling Jaya,Selangor,47800,,3.129476,101.59417,,2,Default AC heuristic,0,1.96,0.98
459620,5D4AB16D-DDDC-490D-82F9-9A4CCB5B0F39,[Restricted] SUNWAY VELOCITY TWO (Residential Condo),Sunway Velocity TWO TOWER C&D,nan,Kuala Lumpur,Kuala Lumpur,55100,,3.129367,101.725037,,3,Venue multi-bay heuristic,0,4.42,1.47
459619,49E7F403-5BDD-473F-97FB-A9EFAE06E5E8,SEVENTEEN MALL (Shopping Mall),Seventeen Mall,nan,Petaling Jaya,Selangor,46400,,3.128598,101.634811,,7,Venue multi-bay heuristic,0,5.42,0.77
459618,56307021-F367-461C-9B02-C9970DCF5436,(PRIVATE) Chargesini Showroom (Car Showroom),ChargeSini EV Charging Solution,nan,Cheras,W.P. Kuala Lumpur,55100,,3.1281,101.754181,,1,Default AC heuristic,0,3.11,3.11
459617,DA9824DA-6611-4228-A465-759B468F054B,SHAMELIN STAR RESIDENCE (Residential Condo),Shamelin Star Residences Rigel,nan,Kuala Lumpur,Kuala Lumpur,56100,,3.126423,101.737045,,1,Default AC heuristic,0,2.71,2.71
459616,208D9611-5A1F-42A2-B035-FAF02A657359,[Restricted] NADI BANGSAR SERVICED RESIDENCE (Residential Condo),Nadi Bangsar Serviced Residence,nan,Bangsar,W.P. Kuala Lumpur,59100,,3.125863,101.67514,,1,Default AC heuristic,0,1.55,1.55
459615,C2EE4576-7263-43B3-B6EF-01D196986E5D,[Restricted] TRION 2 @ KL (Residential Condo),Trion 2 @ KL,nan,Kuala Lumpur,Kuala Lumpur,55200,,3.12525,101.712776,,2,Default AC heuristic,0,6.58,3.29
459614,BECD7EE6-164D-4204-8944-2B38CCE797F6,[Restricted] PARC 3 RESIDENCE (Residential Condo),"5, Jalan Pudu Perdana",nan,Kuala Lumpur,Kuala Lumpur,56100,,3.121749,101.730713,,1,Default AC heuristic,0,2.4,2.4
459613,61F22C60-BFA5-4114-93F9-4DAA1C087EDA,[Restricted] SETIA SKY SEPUTEH (Residential Condo),Setia Sky Seputeh,nan,Kuala Lumpur,Kuala Lumpur,58000,,3.12028,101.681557,,1,Default AC heuristic,0,3.84,3.84
459612,AC95BB24-AC48-487B-80A6-B05824A8A822,COLUMBIA ASIA HOSPITAL PETALING JAYA (Medical),Columbia Asia Hospital - Petaling Jaya,nan,Petaling Jaya,Selangor,46200,,3.118356,101.637642,,2,Default AC heuristic,0,2.44,1.22
459611,6FAF5647-7D97-4DD6-91FE-BD8DBD463752,[Restricted] VILA VISTA CHERAS CONDOMINIUM (Residential Condo),Vila Vista Condominium,nan,Kuala Lumpur,Kuala Lumpur,56100,,3.114405,101.730003,,1,Default AC heuristic,0,3.68,3.68
459610,410EEA43-67E8-4D49-B25A-DC0CF3F853E9,D'NETWORK @ SETIA ECO PARK (Commercial),D'Network @ Setia Eco Park,nan,Shah Alam,Selangor,40170,,3.108452,101.477661,,2,Default AC heuristic,0,4.05,2.02
459609,71158A07-8335-45E0-924E-ECF9E11AA68F,KELANA D'PUTERA CONDOMINIUM (Residential Condo),Kelana D'Putera - Main Gate | PJ Ss7 condominium,nan,Petaling Jaya,Selangor,47301,,3.108021,101.593048,,1,Default AC heuristic,0,2.1,2.1
459608,9954F06E-CB08-47CF-8CAA-A7FC18A146AB,[Restricted] VIVO RESIDENCE @ 9 SEPUTEH (Residential Condo),VIVO Residence @ 9 Seputeh,nan,Kuala Lumpur,Kuala Lumpur,58000,,3.105652,101.677086,,2,Default AC heuristic,0,4.66,2.33
459607,3238E453-CCDA-4036-8A69-F8D132575E19,MILLENNIUM SQUARE,Millennium Square,nan,Petaling Jaya,Selangor,46100,,3.10489,101.635345,,1,Default AC heuristic,0,2.22,2.22
459606,C7888973-6E6F-4A24-A4D7-8A9C0D5BCF4D,[Restricted] PAPILLON DESAHILL CONDOMINIUM (Residential Condo),Papillon Desahill Condominium,nan,Kuala Lumpur,Kuala Lumpur,58100,,3.102913,101.679718,,1,Default AC heuristic,0,5.1,5.1
459605,A725620A-0E9E-4E11-83CF-AEE1C6483B6E,PROTON E.MAS CHERAS- ABLE MOBILITY SDN BHD (Car Showroom),Proton e.MAS Cheras - Able Mobility Sdn Bhd,nan,Willayah Persekutuan,W.P. Kuala Lumpur,56100,,3.102519,101.734657,,1,Default AC heuristic,0,2.69,2.69
459604,5188322F-555B-48F0-817E-75371F3F5CAB,[Restricted] DANAU PERMAI CONDOMINIUM (Residential Condo),Danau Permai Condominium,nan,Kuala Lumpur,Kuala Lumpur,58100,,3.101011,101.68837,,1,Default AC heuristic,0,3.52,3.52
459603,635D6E19-BB79-4B7D-A0DB-D233E94D5094,[Restricted] SURIA RESIDENCES (Residential Condo),Suria Residence by Sunsuria,nan,Shah Alam,Negeri Sembilan,40150,,3.098301,101.537277,,5,Venue multi-bay heuristic,0,6.31,1.26
459602,F32FDAEC-F54F-4BFC-A0C1-4C425216FA11,[Restricted] THE HIPSTER TAMAN DESA (Residential Condo),"The Hipster, Taman Desa",nan,Kuala Lumpur,Kuala Lumpur,58100,,3.098231,101.69014,,2,Default AC heuristic,0,5.34,2.67
459601,1ED01CE1-C90E-455F-B21E-2501B8ED1B95,[Restricted] PANGSAPURI SERVIS SURIA JELUTONG (Residential Condo),Suria Jelutong Serviced Apartment,nan,Shah Alam,Selangor,40150,,3.098137,101.538795,,3,Venue multi-bay heuristic,0,4.12,1.37
459600,0A6A02DA-F85A-4B80-8974-305F746DF381,[Restricted] CASA DESA CONDOMINIUM (Residential Condo),Casa Desa Condominium,nan,Cheras,W.P. Kuala Lumpur,58100,,3.096656,101.679192,,2,Default AC heuristic,0,1.6,0.8
459599,4C45FFA0-FA91-4FB7-9189-DA845D68166E,[Restricted] ABADI RIA CONDOMINIUM (Residential Condo),Abadi Ria Condominium (Kondominium Abadi Ria),nan,Cheras,W.P. Kuala Lumpur,58100,,3.095673,101.684349,,2,Default AC heuristic,0,1.71,0.85
459598,6B44455B-A359-4775-A53B-4B45C97249CA,HJ SEAFOOD TREASURE (Restaurant),HJ Seafood Treasure 海景大酒家,nan,Kuchai Lama,W.P. Kuala Lumpur,58200,,3.092424,101.685303,,2,Default AC heuristic,0,2.86,1.43
459597,9D8C403F-BD2E-4DF1-A916-940190301DD3,[Restricted] UTROPOLIS SUITES TOWER B (Residential Condo),Utropolis Suites 1 (namely Tower A and B),nan,Shah Alam,Selangor,40150,,3.09107,101.55896,,5,Venue multi-bay heuristic,0,3.37,0.67
459596,A5188A35-6D85-4D14-967A-A0C0F9A25E3F,[Restricted] THE HOLMES 2 CONDOMINIUM (Residential Condo),The Holmes 2,nan,Jln Tun Razak,W.P. Kuala Lumpur,56000,,3.088864,101.720764,,1,Default AC heuristic,0,2.56,2.56
459595,37D88131-9315-4CDD-9D59-962129CA4C54,[Restricted] KL PALACE COURT (Residential Condo),KL Palace Court,nan,Kuala Lumpur,Kuala Lumpur,58200,,3.088201,101.683678,,2,Default AC heuristic,0,5.89,2.95
459594,47ADC1B5-BA64-46FF-A530-FA8B03AFAA9F,[Restricted] ICON CITY (Residential Condo),Icon City,nan,Petaling Jaya,Selangor,47300,,3.087786,101.615036,,1,Default AC heuristic,0,3.6,3.6
459593,723C8EEE-C2DE-4319-93B2-BE52989B5161,[Restricted] KUCHAI BREM PARK CONDO 1 (Residential Condo),Kuchai Brem Park Condo 1,nan,Kuchai Lama,W.P. Kuala Lumpur,58200,,3.086742,101.686554,,2,Default AC heuristic,0,3.83,1.92
459592,49A069CA-DD88-4FDA-AAED-868FF90231F7,CHINT MALAYSIA (Commercial),CHINT Malaysia,nan,Shah Alam,Selangor,40150,,3.085453,101.572601,,2,Default AC heuristic,0,3.06,1.53
459591,A91704B8-21F3-417D-A9F9-C75ED8A95553,SMILE HOTEL SHAH ALAM (Hotel),Smile Hotel Shah Alam Seksyen 9,nan,Shah Alam,Selangor,40100,,3.085349,101.522308,,6,Venue multi-bay heuristic,0,5.15,0.86
459590,EABE621C-A229-42E5-B454-7CFB9B31D33B,[Restricted] PETALZ RESIDENCES @ OLD KLANG ROAD (Residential Condo),Petalz Residences by EXSIM,nan,Kuala Lumpur,Kuala Lumpur,58000,,3.084323,101.661392,,1,Default AC heuristic,0,3.37,3.37
459589,1BB73F82-A3B1-42FE-A580-D667B779906E,[Restricted] WIDURI IMPIAN CONDOMINIUM (Residential Condo),Widuri Impian Condominium,nan,Desa Petaling,W.P. Kuala Lumpur,57100,,3.084177,101.713982,,1,Default AC heuristic,0,2.01,2.01
459588,2BEA6EE4-450A-488E-8CCC-679C4E1AE193,CONCORDE HOTEL SHAH ALAM (Hotel),Concorde Hotel Shah Alam,nan,Shah Alam,Selangor,40100,,3.083955,101.524399,,3,Venue multi-bay heuristic,0,4.18,1.39
459587,9463AC64-346F-4AD4-A809-CA5AA75FFC7E,[Restricted] CITIZEN 2 @ OLD KLANG ROAD (Residential Condo),Citizen 2 @ Old Klang Road,nan,Old Klang Road,Kuala Lumpur,58000,,3.081979,101.662781,,2,Default AC heuristic,0,7.71,3.85
459586,AEB1E45E-675E-4D0F-B567-0D1093B7303B,NU EMPIRE SHOPPING GALLERY (Shopping Mall),Empire Shopping Gallery,nan,Subang Jaya,Selangor,47500,,3.081778,101.582802,,6,Venue multi-bay heuristic,0,5.07,0.85
459585,A7A4E91E-F4AB-4995-BA9D-BD384FFD523D,IKON CONNAUGHT MALL (Shopping Mall),IKON Connaught,nan,Cheras,W.P. Kuala Lumpur,56000,,3.081166,101.731636,,2,Default AC heuristic,0,4.7,2.35
459584,A34AD1D3-6DE6-4742-A473-B89E35B53585,[Restricted] ONE SOHO SUBANG APARTMENT (Residential Condo),One Soho Subang,nan,Subang Jaya,Selangor,47500,,3.079117,101.572502,,3,Venue multi-bay heuristic,0,1.97,0.66
459583,BA76251B-D5A9-4B03-9995-7763A3FFD0CF,[Restricted] GREENFIELD RESIDENCE (Residential Condo),Greenfield Residence,nan,Petaling Jaya,Selangor,46150,,3.078443,101.613419,,2,Default AC heuristic,0,3.11,1.55
459582,D01FCF0F-ADD6-400B-96A8-E954D4B288D9,[Restricted] BOULEVARD SUBANG JAYA (Residential Condo),The Boulevard Condominium Subang Jaya,nan,Subang Jaya,Selangor,47500,,3.07837,101.602219,,1,Default AC heuristic,0,2.72,2.72
459581,A2F7AFD5-31BE-43C1-AF65-1FDABA44E8BC,[Restricted] PRIMA U1 CONDOMINIUM (Residential Condo),Prima U1 Condominium,nan,Shah Alam,Selangor,40150,,3.078161,101.556183,,2,Default AC heuristic,0,3.46,1.73
459580,77F9A361-7FE7-4038-A733-DD475D7210FA,[Restricted] SERINGIN RESIDENCES (Residential Condo),Seringin Residences,nan,Old Klang Road,Kuala Lumpur,58200,,3.076546,101.686668,,2,Default AC heuristic,0,7.39,3.7
459579,FC633155-BF76-4AE9-8D9B-77EB4B73E311,[Restricted] RIANA SOUTH CONDOMINIUM (Residential Condo),Riana South @ Bukit Manda'rina - IJM Land,nan,Kuala Lumpur,Kuala Lumpur,56000,,3.076233,101.732903,,2,Default AC heuristic,0,5.96,2.98
459578,677B994C-ACD5-4F32-974A-E27A0DFF1543,[Restricted] RIVERVILLE RESIDENCES (Residential Condo),Riverville Residences,nan,Kuala Lumpur,Kuala Lumpur,58200,,3.076086,101.65593,,2,Default AC heuristic,0,6.27,3.13
459577,0F4F6F9B-2A8A-4344-9A7B-1913C0A37990,[Restricted] ALTITUDE 236 (Residential Condo),"9, Persiaran Alam Damai",nan,Cheras,W.P. Kuala Lumpur,56000,,3.076023,101.735252,,1,Default AC heuristic,0,4.17,4.17
459576,80240791-6D92-48A3-A0B5-B21381EBB0A4,[Restricted] YOU CITY-YOU VISTA (Residential Condo),You City - You Vista,nan,Cheras,Selangor,43200,,3.074682,101.762955,,2,Default AC heuristic,0,3.26,1.63
459575,4153F3CE-168F-4C29-BB2B-393E63ED408D,[Restricted] GREEN RESIDENCE (Residential Condo),Jalan Sayang 1,nan,Cheras,Selangor,43200,,3.072992,101.755684,,1,Default AC heuristic,0,1.46,1.46
459574,53CCFDE7-FDD2-4DCB-9CF7-E0B0BE022F2B,[Restricted] IMPERIAL RESIDENCE (Residential Condo),Imperial Residence,nan,Cheras,Selangor,43200,,3.072718,101.759346,,2,Default AC heuristic,0,3,1.5
459573,1484DFA0-A274-4417-80E1-BAF0FA80205C,[Restricted] CHERAS HEIGHTS CONDOMINIUM (Residential Condo),"no 2, Jalan Bukit Cheras 18",nan,Kuala Lumpur,Kuala Lumpur,56000,,3.068582,101.747993,,1,Default AC heuristic,0,5.16,5.16
459572,F5E296FC-860B-4209-B36C-CE38E5D45A3B,[Restricted] ALAM SANJUNG (Residential Condo),ALAM SANJUNG,nan,Shah Alam,Selangor,40300,,3.068384,101.553566,,2,Default AC heuristic,0,1.8,0.9
459571,7A0BCB4D-BA58-4631-9880-D04BD8DB009D,[Restricted] WALTZ RESIDENCES (Residential Condo),Waltz Residences,nan,Puchong,W.P. Kuala Lumpur,58200,,3.068148,101.672478,,1,Default AC heuristic,0,1.57,1.57
459570,5D55142B-03EA-4147-A48C-09D50A505E3C,PINNACLE SRI PETALING MALL (Grocery),Pinnacle Sri Petaling (Condominium Complex),nan,Kuala Lumpur,Kuala Lumpur,57000,,3.067885,101.693985,,1,Default AC heuristic,0,3.15,3.15
459569,11577C4A-22C6-4E78-A97D-14C01033B098,[Restricted] THE GREENS (RESIDENSI HIJAUAN) (Residential Condo),Residensi Hijauan (The Greens),nan,Shah Alam,Negeri Sembilan,40300,,3.067677,101.553314,,2,Default AC heuristic,0,5.01,2.51
459568,01BCD927-7603-4EBD-A669-EB06D8698B4E,THE FOOD MERCHANT WCITY OUG SALES GALLERY (Grocery),"The Food Merchant, WCity OUG Sales Gallery",nan,OUG,W.P. Kuala Lumpur,58200,,3.067541,101.67411,,1,Default AC heuristic,0,2.11,2.11
459567,2B002D08-51C9-4E23-90C4-43B54F36AD56,[Restricted] PARK VILLA CONDOMINIUM (TOWER A) (Residential Condo),Park Villa Condominium @ Jalan Pipit,nan,Puchong,Selangor,47100,,3.066964,101.625031,,2,Default AC heuristic,0,3.57,1.79
459566,8586D555-B86A-43BE-9B45-7086BDDD8EE8,[Restricted] IMPIAN HEIGHT CONDOMINIUM (Residential Condo),Impian Height Condominium,nan,Puchong,Selangor,47100,,3.065263,101.625984,,1,Default AC heuristic,0,1.4,1.4
459565,6C12A7BD-C90F-44C4-9D7F-C5401309E22E,[Restricted] KIARA RESIDENCE 2 (Residential Condo),Kiara Residence 2,nan,Kuala Lumpur,Kuala Lumpur,58200,,3.064063,101.669563,,1,Default AC heuristic,0,3.16,3.16
459564,81C87B8C-1B11-4413-A198-DD3700568C72,THE SUMMIT USJ (Shopping Mall),The Summit USJ,nan,Subang Jaya,Selangor,47600,,3.06024,101.593544,,1,Default AC heuristic,0,2.33,2.33
459563,3EF93EFB-92AD-4ABD-B1B2-1637F469FE8E,[Restricted] USJ ONE RESIDENCE (Residential Condo),USJ One Residence Tower B,nan,Subang Jaya,Selangor,47500,,3.059559,101.598648,,3,Venue multi-bay heuristic,0,3.23,1.08
459562,A52AC366-AE3B-4BAA-BC3A-7B9A16756386,[Restricted] CASA GREEN CONDOMINIUM (TOWER A) (Residential Condo),Casa Green Condominium - Cheras,nan,Cheras,Selangor,43200,,3.057322,101.761642,,1,Default AC heuristic,0,2.44,2.44
459561,694BBD6B-1E9B-4F08-99A6-C57A941ADCAF,[Restricted] SAVANNA BUKIT JALIL (Residential Condo),Savanna Bukit Jalil,nan,Kuala Lumpur,Kuala Lumpur,57000,,3.056604,101.687775,,2,Default AC heuristic,0,4.94,2.47
459560,45FA1E05-B96D-47A5-86CC-A842908F7A06,[Restricted] THE HAVRE BUKIT JALIL (Residential Condo),The Havre Bukit Jalil,nan,Kuala Lumpur,Kuala Lumpur,57000,,3.056034,101.666908,,1,Default AC heuristic,0,5.75,5.75
459559,5209D46A-082A-4884-B33D-3AFE27BC0913,BMC MALL (Shopping Mall),BMC Mall,nan,Cheras,Selangor,43200,,3.054651,101.786812,,5,Venue multi-bay heuristic,0,5.81,1.16
459558,F3F9460C-C24B-4E33-8282-98DECCC9E54D,[Restricted] KEN RIMBA CONDOMINIUM 1 (Residential Condo),Ken Rimba Condominium 1,nan,Shah Alam,Selangor,40200,,3.053399,101.4851,,1,Default AC heuristic,0,1.84,1.84
459557,7E8A5D3E-B65B-4480-97AD-5753AD536EEC,[Restricted] EMERALD RESIDENCES (Residential Condo),Emerald Residence,nan,Cheras,Selangor,43200,,3.052281,101.794403,,1,Default AC heuristic,0,1.83,1.83
459556,B17157E6-8BA9-4FCC-BCAF-B88D63C29BBE,[Restricted] THE ZEST @ KINRARA 9 (Residential Condo),The Zest @Kinrara 9,nan,Puchong,Selangor,47180,,3.052172,101.654312,,1,Default AC heuristic,0,1.33,1.33
459555,0D003998-5A71-46CF-AF20-B1EB8FBAD98C,[Restricted] REGENCY KLANG (Residential Condo),Regency Condominium,nan,Klang,Kuala Lumpur,41300,,3.051143,101.462868,,1,Default AC heuristic,0,3.89,3.89
459554,AE1E1E41-A9E8-4A79-B753-42F3450C13F5,[Restricted] TWIN ARKZ (Residential Condo),Twin Arkz @ Bukit Jalil,nan,Desa Petaling,W.P. Kuala Lumpur,57000,,3.051014,101.680023,,2,Default AC heuristic,0,3.62,1.81
459553,29CA33C4-39EB-4580-8A3C-368B1D2F08B7,[Restricted] VINA RESIDENCY (Residential Condo),Vina Residency,nan,Cheras,Selangor,43200,,3.049642,101.753036,,2,Default AC heuristic,0,2.41,1.2
459552,F6501093-0DA3-4886-A15C-DB6A6789CC65,[Restricted] THE NETIZEN (Residential Condo),The Netizen Cheras Homestay,nan,Cheras,Selangor,43200,,3.049329,101.772591,,2,Default AC heuristic,0,4.58,2.29
459551,524ECBA2-CA2F-46A6-A631-0474BC9F5493,[Restricted] TEN KINRARA (Residential Condo),Ten Kinrara,nan,Puchong,Selangor,47180,,3.047793,101.646339,,1,Default AC heuristic,0,1.65,1.65
459550,FD56C5A7-7764-4ACE-8F7A-B2AB4CF56FB3,RAYTECH SERI KEMBANGAN (Car Showroom),Raytech Tinting Sdn Bhd,nan,Seri Kembangan,Selangor,43300,,3.0469,101.704361,,1,Default AC heuristic,0,1.42,1.42
459549,10EE3255-4B5A-4006-A6E7-B870F01FB8E6,[Restricted] RESIDENSI SUNGAI LONG (Residential Condo),Sungai Long Residence,nan,Kajang,Selangor,43000,,3.04404,101.803787,,1,Default AC heuristic,0,3.21,3.21
459548,5A35B649-7783-4200-BA5A-85DC908155D2,[Restricted] CLOUD TREE RESIDENCE C (Residential Condo),CloudTree Residence,nan,Seri Kembangan,Selangor,43300,,3.043346,101.733009,,2,Default AC heuristic,0,3.01,1.5
459547,F7B6DB83-19E6-465E-ADCD-E567B4DEDD46,BURAQ OIL LUMUT (Commercial),CO3 Social Office | Puchong Campus,nan,Puchong,Selangor,47170,,3.042961,101.618248,,5,Venue multi-bay heuristic,0,6.27,1.25
459546,6CC1BDE1-DFFE-4F41-AA40-8AEDB8FA899E,[Restricted] CLOUD TREE RESIDENCE A (Residential Condo),CloudTree Residence,nan,Seri Kembangan,Selangor,43300,,3.04292,101.73111,,2,Default AC heuristic,0,2.18,1.09
459545,423CB648-508C-4016-91F6-AE3C3B179545,[Restricted] THE SANDERSON (Residential Condo),The Sanderson,nan,Seri Kembangan,Selangor,43300,,3.042449,101.692055,,1,Default AC heuristic,0,2.77,2.77
459544,2C5C78DB-8A26-4818-BCFF-69A9D3C506C5,[Restricted] IRIS RESIDENCES (Residential Condo),Iris Residence,nan,Kajang,Selangor,43000,,3.04221,101.807518,,1,Default AC heuristic,0,2.68,2.68
459543,27C2DC07-AB81-43D4-9065-D69F8F53238C,[Restricted] PARKLAND RESIDENCES (Residential Condo),"10, Jalan Seksyen 2/2",nan,Cheras,Selangor,43200,,3.041734,101.772774,,1,Default AC heuristic,0,1.67,1.67
459542,3B9D217A-206A-49C8-A29C-DA980F688741,[Restricted] PERMATA RESIDENCE (Residential Condo),Permata Residence,nan,Kajang,Selangor,43000,,3.029084,101.786896,,1,Default AC heuristic,0,4.42,4.42
459541,0A7D04F4-AA8F-4D6C-8C35-86434092D625,[Restricted] SUTERA PINES APARTMENT (Residential Condo),Sutera Pines,nan,Kajang,Selangor,43000,,3.026803,101.813782,,1,Default AC heuristic,0,2.69,2.69
459540,9087948D-0DEA-4594-BD68-87589708418B,[Restricted] ASTETICA RESIDENCES (Residential Condo),Astetica Residence Tower A (Block A),nan,Seri Kembangan,Selangor,43300,,3.026323,101.716347,,5,Venue multi-bay heuristic,0,4.58,0.92
459539,2447455A-AB38-4265-A53A-45029F79C17B,"AMERIN MALL, SERI KEMBANGAN (Shopping Mall)",Amerin Mall,nan,Seri Kembangan,Selangor,43300,,3.024839,101.751541,,3,Venue multi-bay heuristic,0,4.88,1.63
459538,45B31286-D887-4119-8779-D406C8D2E472,[Restricted] RESIDENSI BUKIT PALMA (Residential Condo),Palm Hill Residence 1,nan,Kajang,Selangor,43000,,3.024755,101.805649,,2,Default AC heuristic,0,4.02,2.01
459537,A59BD96A-7E98-4199-9A4B-83CC5444F876,[Restricted] RESIDENSI BUKIT PALMA 2 (Residential Condo),Residensi Bukit Palma 2,nan,Cheras,Negeri Sembilan,43000,,3.02411,101.804726,,1,Default AC heuristic,0,1.85,1.85
459536,E79304E4-BF2D-4372-95CB-0BEFAA6AFC4D,ONE CITY USJ (SKYPARK OUTDOOR) (Shopping Mall),Sky Park @ One City USJ,nan,Subang Jaya,Selangor,47650,,3.021792,101.580353,,2,Default AC heuristic,0,2.56,1.28
459535,DB235A38-21E4-4486-A135-DA409BF7793D,IOI RIO CITY PUCHONG (Shopping Mall),IOI Rio,nan,Puchong,Selangor,47100,,3.020621,101.623741,,6,Venue multi-bay heuristic,0,5.65,0.94
459534,224DA8DB-4FD8-464D-8A69-2D159BD962B1,[Restricted] CONDOMINIUM UNIVERSAL 360 (Residential Condo),Univ 360 Place Management Office,nan,Seri Kembangan,Selangor,43300,,3.020611,101.71489,,7,Venue multi-bay heuristic,0,5,0.71
459533,97258A0C-FB04-49C1-9D4A-BD7AEF63A904,[Restricted] PANGSAPURI PUNCAK SAUJANA (Residential Condo),Pangsapuri Puncak Saujana,nan,Kajang,Selangor,43000,,3.017278,101.812614,,1,Default AC heuristic,0,1.07,1.07
459532,7904D95B-0FA3-4342-98B7-EB19A67E8ACD,[Restricted] PANGSAPURI SAUJANA PERMAI 2 (Residential Condo),Pangsapuri Saujana Permai 2,nan,Kajang,Selangor,43000,,3.014625,101.810944,,2,Default AC heuristic,0,2.42,1.21
459531,1B17FDD7-528A-42C4-9E0A-30BEB17C752E,[Restricted] ZENOPY RESIDENCES (Residential Condo),Zenopy Residences - Residence Lobby 1,nan,Seri Kembangan,Selangor,43300,,3.007914,101.668701,,2,Default AC heuristic,0,2.48,1.24
459530,CDA1302C-7299-403D-AB52-F5ED2749BC40,[Restricted] GEO BUKIT RIMAU CONDOMINIUM (Residential Condo),GEO Bukit Rimau Condominium,nan,Shah Alam,Selangor,40460,,3.000672,101.527245,,1,Default AC heuristic,0,2.99,2.99
459529,BF37C108-FF65-4F10-8C78-75C22BE860DB,COLUMBIA HOSPITAL BUKIT RIMAU (Medical),Columbia Asia Hospital - Bukit Rimau,nan,Shah Alam,Selangor,40460,,2.99737,101.52877,,2,Default AC heuristic,0,3.35,1.68
459528,265AC6D0-CB9F-473C-B6E8-FF21C8B8D777,ECONSAVE CASH & CARRY PANDAMARAN (Grocery),Econsave Pandamaran (Hypermarket | Wholesale),nan,Klang,Negeri Sembilan,42000,,2.994984,101.419701,,1,Default AC heuristic,0,1.89,1.89
459527,DCC9E5C0-BE66-4ECE-BA61-8C4B7B2BA52E,[Restricted] PARAGON 3 CONDOMINIUM (TOWER 1) (Residential Condo),Paragon 3,nan,Puchong,Selangor,43300,,2.994305,101.650497,,1,Default AC heuristic,0,1.93,1.93
459526,43752582-7884-49CE-9399-E29543BD0641,[Restricted] PARAGON 3 CONDOMINIUM (TOWER 2) (Residential Condo),Paragon 3,nan,Seri Kembangan,Selangor,43300,,2.993159,101.651047,,2,Default AC heuristic,0,3.11,1.56
459525,732510F5-86C5-4668-A8D0-EE0FC2B3E00B,CANVAS HOTEL KLANG (Hotel),The Canvas Hotel,nan,Klang,Kuala Lumpur,41200,,2.992799,101.443863,,5,Venue multi-bay heuristic,0,21.51,4.3
459524,AB1E44D0-14DA-4974-951A-AD41F6DC4FE0,[Restricted] JADITE SUITES (Residential Condo),Persiaran Jade Hills Utama,nan,Kajang,Selangor,43000,,2.992677,101.757736,,2,Default AC heuristic,0,3.76,1.88
459523,7608E8A6-C865-4FF9-AA7F-843D828E445E,PARK INN BY RADISSON PUTRAJAYA (Hotel),Park Inn by Radisson Putrajaya,nan,Kajang,Putrajaya,43000,,2.979283,101.737564,,2,Default AC heuristic,0,5.36,2.68
459522,E965E469-861F-40FF-BA7B-99C966582EF1,[Restricted] DESARIA VILLA CONDOMINIUM (Residential Condo),Desaria Villa Condominium,nan,Puchong,Selangor,47120,,2.977706,101.639618,,2,Default AC heuristic,0,3.21,1.6
459521,C4E78AAC-2149-4A80-8743-2A7FB21CF151,[Restricted] D'AMAN RESIDENCES (Residential Condo),D'Aman Residences,nan,Puchong,Selangor,47130,,2.975389,101.581833,,1,Default AC heuristic,0,2.49,2.49
459520,7A9DD40B-43E9-48B0-A2AF-082EA6C6C0BE,[Restricted] KOI SUITES CONDOMINIUM (Residential Condo),Koi Suites Condominium,nan,Puchong,Selangor,47130,,2.974447,101.579185,,2,Default AC heuristic,0,3.32,1.66
459518,4A245DEE-969D-4D90-8479-AAFAA010B34B,[Restricted] X2 RESIDENCY (BLOCK B) (Residential Condo),X2 Residency,nan,Puchong,Selangor,47130,,2.965042,101.593376,,1,Default AC heuristic,0,1.98,1.98
459517,B44F14DF-9CD1-4569-ABE2-E30664A89FF7,[Restricted] TASIK RESIDENCY (Residential Condo),Tasik Residency,nan,Puchong,Selangor,47130,,2.963733,101.592911,,1,Default AC heuristic,0,1.76,1.76
459516,3420B315-AA8C-48C9-B161-188F293651B6,PKNS COMPLEX BANGI (Shopping Mall),Kompleks PKNS Bangi,nan,Bandar Baru Bangi,Negeri Sembilan,43650,,2.961875,101.757225,,2,Default AC heuristic,0,2.31,1.16
459515,D212C398-83C9-4E54-825D-A45FEA414352,[Restricted] PUNCAK HIJAUAN CONDOMINIUM (Residential Condo),Puncak Hijauan Condominium,nan,Kajang,Selangor,43000,,2.944719,101.796471,,2,Default AC heuristic,0,3.55,1.77
459514,BA3FAC46-5FA2-4511-87F6-A86299739A2B,[Restricted] BSP SKYPARK (Residential Condo),BSP Skypark,nan,Jenjarom,Selangor,42610,,2.941624,101.587875,,1,Default AC heuristic,0,1.52,1.52
459513,0D224EBE-A54F-4EB1-9885-FB038A677A0B,[Restricted] LAKEFRONT RESIDENCE @ CYBERJAYA (Residential Condo),Lakefront Residence @ Cyberjaya,nan,Cyberjaya,Selangor,63000,,2.933997,101.631264,,2,Default AC heuristic,0,2.99,1.49
459512,4E9A6D8D-DE32-402A-8078-97F489FDDF1C,BANGI GATEWAY MALL (Shopping Mall),Bangi Gateway Shopping Complex,nan,Bandar Baru Bangi,Selangor,43650,,2.932871,101.76532,,5,Venue multi-bay heuristic,0,4.79,0.96
459511,13C8B804-3930-4823-9DE7-DFE169C643D8,[Restricted] TAMARA RESIDENCE TOWER A (Residential Condo),Tamara Residence,nan,Putrajaya,Putrajaya,62250,,2.927745,101.679329,,1,Default AC heuristic,0,3.93,3.93
459510,9C3819BC-E275-4C14-8C7E-9542CC940E78,[Restricted] LAKEFRONT HOMES @ CYBERJAYA (PR1MA) (Residential Condo),"Lakefront Homes, Cyberjaya",nan,Cyberjaya,Selangor,63000,,2.92746,101.631958,,1,Default AC heuristic,0,1.71,1.71
459509,6AF7B0EF-8DF6-4E3C-BD7C-3DFD6595DA60,[Restricted] TAMARA RESIDENCE TOWER  C (Residential Condo),Tamara Residence,nan,Putrajaya,Putrajaya,62250,,2.926,101.679375,,2,Default AC heuristic,0,6.12,3.06
459508,E5593A79-A66A-479B-B999-52F275F536D6,SHAFTSBURY SQUARE (Commercial),Shaftsbury Square,nan,Cyberjaya,Selangor,63000,,2.922597,101.661896,,2,Default AC heuristic,0,2.52,1.26
459507,248A832B-FAE9-4FB4-9965-64243502F7DF,[Restricted] ALMYRA RESIDENCE (Residential Condo),Almyra Residence,nan,Kajang,Selangor,43000,,2.877916,101.795326,,1,Default AC heuristic,0,1.54,1.54
459506,0FB83688-F1BD-426F-9930-D5D0D90B6BFE,[Restricted] PALMERA RESIDENCE (Residential Condo),Palmyra Residence,nan,Kajang,Selangor,43000,,2.877094,101.793533,,1,Default AC heuristic,0,1.4,1.4
459505,7DBEA585-2CC7-4702-B74B-2166B5A5DBC0,HOLIDAY INN SEPANG (Hotel),"Holiday Inn Sepang Airport, an IHG Hotel",nan,Sepang,Selangor,43900,,2.82035,101.695267,,4,Venue multi-bay heuristic,0,3.24,0.81
459504,21D091C5-62DE-4E76-BAA7-7EE97816E366,"OE RESORT, NEGERI SEMBILAN (Hotel)",OE Resort (Private Ground),nan,Seremban,Negeri Sembilan,71700,,2.815522,101.912743,,4,Venue multi-bay heuristic,0,7.01,1.75
459503,4D73DE12-4DB0-4BBA-9B78-89DD8BCC789A,ECONSAVE CASH & CARRY BANTING (Grocery),"2-14, Jalan Suasa",nan,Banting,Selangor,42700,,2.811765,101.506699,,1,Default AC heuristic,0,2.16,2.16
459502,7CB9E1D2-47B2-4CEC-AB53-F046231E72B8,TERMINAL 1 SEREMBAN (Shopping Mall),Terminal 1 Shopping Centre,nan,Seremban,Negeri Sembilan,70000,,2.722891,101.937012,,4,Venue multi-bay heuristic,0,4.41,1.1
459501,01E00EF5-AABA-41A3-A1DD-F2CF142E795F,SEREMBAN GATEWAY (Shopping Mall),Seremban Gateway,nan,Seremban,Negeri Sembilan,70200,,2.716845,101.920074,,1,Default AC heuristic,0,1.9,1.9
459500,373A92B9-C5D6-4CF3-AE47-816317F219CF,LOTUS'S SEREMBAN 2 (Shopping Mall),Lotus Seremban 2,nan,Seremban,Negeri Sembilan,70300,,2.712631,101.914429,,1,Default AC heuristic,0,1.59,1.59
459499,C92290F7-277E-40BD-A742-B91703EC88A8,MYDIN SENAWANG HYPERMARKET (Shopping Mall),Mydin Senawang Hypermarket,nan,Seremban,Negeri Sembilan,70450,,2.70045,101.979942,,1,Default AC heuristic,0,2.04,2.04
459498,D9E79504-B17F-4A02-8B9B-427E03549852,MYDIN SEREMBAN 2 (Shopping Mall),Mydin Mall Seremban 2,nan,Seremban,Negeri Sembilan,70300,,2.69512,101.903976,,3,Venue multi-bay heuristic,0,3.15,1.05
459497,6FA7FAD4-3F8F-4594-A7EF-06E585080007,REGINA MALL PORT DICKSON (Shopping Mall),Regina Mall,nan,Port Dickson,Negeri Sembilan,71000,,2.524174,101.801422,,5,Venue multi-bay heuristic,0,4.07,0.81
459496,81DEC746-6D96-41A1-87C4-E8273FA4CBA8,MYDIN HYPERMARKET PULAU SEBANG (Shopping Mall),Mydin Pulau Sebang Hypermarket,nan,Alor Gajah,Melaka,78000,,2.462454,102.231361,,2,Default AC heuristic,0,2.95,1.47
459495,66A627F3-5362-4E2C-92B4-8F239485C694,MYDIN BANDAR JASIN (Shopping Mall),"Mydin Wholesale Hypermarket Bandar Jasin Bestari, Melaka",nan,Melaka,Melaka,77200,,2.280188,102.391357,,2,Default AC heuristic,0,4.35,2.18
459494,A9B47120-71B6-4C21-ACCE-102B4BBDF9A3,MYDIN MITC AYER KEROH (Shopping Mall),Mydin MITC,nan,Ayer Keroh,Melaka,75450,,2.271234,102.291786,,1,Default AC heuristic,0,2.28,2.28
459493,FE7E0BA2-FD2C-4688-AC34-CDAAD21B29CD,RAYTECH MELAKA (Car Showroom),"Raytech Melaka (Tinted, PPF, Coating and Detailing Shop)",nan,Melaka,Melaka,75400,,2.209156,102.254295,,2,Default AC heuristic,0,2.85,1.42
459492,6B65E587-5900-45C3-949B-A732C35BB539,ORIENTAL MELAKA STRAITS MEDICAL CENTRE (Medical),Oriental Melaka Straits Medical Centre,nan,Melaka,Melaka,75200,,2.207943,102.213966,,1,Default AC heuristic,0,1.95,1.95
459491,20E52DD5-BE06-40D3-989A-518F5F5A5851,"[Restricted] ADMIRAL RESIDENCES, MELAKA (Residential Condo)",Admiral Residences Kota Laksamana,nan,Melaka,Melaka,75300,,2.200723,102.232895,,1,Default AC heuristic,0,2.51,2.51
459490,C6668AAE-EE9C-4D5C-A441-7D73DB95B9A8,"SWAN GARDEN HOTEL, MELAKA (Hotel)",Bank of China Melaka,nan,Melaka,Melaka,75200,,2.19383,102.237282,,2,Default AC heuristic,0,3.24,1.62
459489,7807B52D-FCFB-4FB1-9B6F-725591952727,HOLIDAY INN MELAKA (BASEMENT) (Hotel),"Holiday Inn Melaka, an IHG Hotel",nan,Melaka,Melaka,75000,,2.18742,102.247635,,4,Venue multi-bay heuristic,0,3.65,0.91
459488,D3328D15-A374-4B53-A735-013173C7B690,REMINGTON HOTEL MUAR (Hotel),REMINGTON HOTEL MUAR,nan,Muar,Johor,84000,,2.044196,102.567108,,4,Venue multi-bay heuristic,0,4.39,1.1
459487,AB3520E3-F17B-46E7-BFD5-4820669C1D99,MUO RESORT (Hotel),MUO Resort,nan,Muar,Johor,84000,,2.037202,102.562996,,6,Venue multi-bay heuristic,0,5.78,0.96
459486,D331A1EC-5CED-4182-BEAA-7321019D479E,KLUANG PARADE JOHOR (Shopping Mall),Kluang Parade,nan,Kluang,Kuala Lumpur,86000,,2.036453,103.320312,,1,Default AC heuristic,0,4.4,4.4
459485,480162A0-2CC1-4D56-B882-20C66D56444C,PRIME CITY HOTEL (Hotel),Prime City Hotel,nan,Kluang,Kuala Lumpur,86000,,2.034902,103.323204,,7,Venue multi-bay heuristic,0,11.65,1.66
459484,5E6BEA80-19C5-4BB0-B0A7-A71265B40391,TARGET YONG PENG (Shopping Mall),Target Supermarket Cawangan Yong Peng,nan,Yong Peng,Johor,83700,,2.006035,103.048004,,1,Default AC heuristic,0,2.78,2.78
459483,9143DA37-4EDD-466C-BFBB-E82FA488ABD2,TARGET GRAND SUPERMARKET (TAMAN KLUANG PERDANA) SDN BHD (Grocery),Target Grand Supermarket (Taman Kluang Perdana) Sdn Bhd,nan,Kluang,Kuala Lumpur,86000,,2.002378,103.291092,,1,Default AC heuristic,0,2.95,2.95
459482,DD98DA3C-8992-4E11-826C-3FDAEDAEE23B,TARGET PARIT RAJA (Grocery),TARGET SUPERMARKET SDN BHD CAWANGAN PUSAT BANDAR PARIT RAJA,nan,Parit Raja,Johor,86400,,1.866485,103.109177,,1,Default AC heuristic,0,2.28,2.28
459481,42E2C4FA-EF3C-4999-8972-01935AB1D56A,THE SUMMIT BATU PAHAT (Shopping Mall),The Summit Batu Pahat,nan,Batu Pahat,Johor,83000,,1.857076,102.934471,,1,Default AC heuristic,0,1.84,1.84
459480,77C27389-016B-46D7-A147-1F9DC928B6B2,THE COMMUNE LIFESTYLE MALL (Shopping Mall),THE COMMUNE Lifestyle Mall,nan,Kulai,Johor,81000,,1.642143,103.602264,,7,Venue multi-bay heuristic,0,7.37,1.05
459479,0436D89E-AD04-48F4-8DA8-2E056EAF80C2,ECONSAVE CASH & CARRY SENAI (Grocery),Econsave Senai,nan,Senai,Negeri Sembilan,81400,,1.611948,103.656784,,2,Default AC heuristic,0,3.75,1.87
459478,AA15EE42-702F-4CBC-B07E-E15A80F30563,IMPIANA HOTEL SENAI (Hotel),Jalan Impian Senai Utama 2,nan,Senai,Johor,81400,,1.593194,103.647102,,2,Default AC heuristic,0,1.25,0.63
459477,E45B3258-2AF1-46A6-A63D-A4582DC9FD8B,CATHAY RESTAURANT ECO SPRING (Restaurant),Cathay Restaurant 新国泰酒楼,nan,Johor Bahru,Johor,81100,,1.588687,103.756241,,2,Default AC heuristic,0,3.1,1.55
459476,4F6C2B5D-882C-4689-9E94-4ACD6CFE5620,"RESTAURANT PEKIN DESA CEMERLANG 北京楼, JOHOR (Restaurant)",Restaurant Pekin Desa Cemerlang 北京楼,nan,Ulu Tiram,Johor,81800,,1.560008,103.810768,,1,Default AC heuristic,0,1.56,1.56
459475,5451C61C-05CD-4103-B1CF-8D5047FA3475,[Restricted] RIVERINE GEMZ (Residential Condo),"2, Jalan Petanak",nan,Kuching,Sarawak,93100,,1.556243,110.361794,,1,Default AC heuristic,0,2.13,2.13
459474,0D86A76B-1397-4BBE-8717-0E9E2A179C9D,THE SPRING KUCHING (Shopping Mall),The Spring Shopping Mall,nan,Kuching,Sarawak,93300,,1.535546,110.3582,,5,Venue multi-bay heuristic,0,5.26,1.05
459473,9E5AEF67-C5CE-4143-817C-B50D936C407D,THE PODIUM (Shopping Mall),The Podium,nan,Kuching,Sarawak,93200,,1.529211,110.336014,,1,Default AC heuristic,0,1.61,1.61
459472,D822518C-1558-45AF-8ACF-9C58A35CC770,ZUS COFFEE DT - JALAN ROCK (Commercial),"ZUS Coffee DT - Jalan Rock, Kuching",nan,Kuching,Sarawak,93200,,1.52799,110.340843,,1,Default AC heuristic,0,2.24,2.24
459471,F69E2CB2-178A-4B74-8B2F-EB60F01A204D,[Restricted] MOLEK REGENCY (TOWER B) (Residential Condo),Molek Regency (Tower B),nan,Johor Bahru,Johor,81100,,1.518907,103.784622,,6,Venue multi-bay heuristic,0,13.67,2.28
459470,2E5FD297-C955-42B2-9010-3C2156155C6C,SUTERA MALL (OLD WING) (Shopping Mall),Sutera Mall,nan,Skudai,Johor,81300,,1.517355,103.67244,,6,Venue multi-bay heuristic,0,4.76,0.79
459469,F9CE7523-F92F-4E8D-B11D-8D4A53A55042,PEKIN SUTERA RESTAURANT (Restaurant),"No.1, Jalan Sutera Tanjung 8/4",nan,Skudai,Johor,81300,,1.517046,103.670113,,2,Default AC heuristic,0,2.53,1.27
459468,9C54C4BC-F8CD-4762-8FAD-37B99B1C37C4,ECONSAVE PERMAS JAYA (Grocery),Econsave Permas Jaya,nan,Masai,Negeri Sembilan,81750,,1.511842,103.816093,,2,Default AC heuristic,0,1.95,0.97
459467,63A74931-B47B-4F3A-948B-D911D4925C3F,COLUMBIA ASIA HOSPITAL TEBRAU JB (Medical),Columbia Asia Hospital - Tebrau,nan,Johor Bahru,Johor,80150,,1.499985,103.765785,,2,Default AC heuristic,0,5.57,2.78
459466,93EF7E1C-C909-47CD-BB1D-1095665AFF7A,[PARTNER EVHUB] ANGSANA MALL (Shopping Mall),Angsana Mall,nan,Skudai,Johor,81200,,1.49533,103.706711,,5,Venue multi-bay heuristic,0,3.56,0.71
459465,CCDDBC95-DC93-450C-BCE9-021534D69C2B,TODAY'S MARKET (Grocery),Today's Market,nan,Masai,Johor,81750,,1.495118,103.87101,,1,Default AC heuristic,0,2.95,2.95
459464,94B936E9-5172-4511-842F-0736BF598113,KPJ PUTERI SPECIALIST HOSPITAL (Medical),KPJ Puteri Specialist Hospital,nan,Johor Bahru,Johor,80350,,1.490253,103.742455,,1,Default AC heuristic,0,1.73,1.73
459462,5B0DA5A4-0B8F-46DF-86AB-25D276DD8515,KSL CITY MALL OUTDOOR (Shopping Mall),KSL City Mall,nan,Johor Bahru,Johor,80250,,1.485749,103.762955,,4,Venue multi-bay heuristic,0,4.95,1.24
459461,1EA8EE04-D28E-4E2E-B0BE-391D8E0F4632,[Restricted] ZENNITH SUITES (Residential Condo),Zennith Suites Service Apartments,nan,Johor Bahru,Johor,80250,,1.485736,103.753494,,2,Default AC heuristic,0,3.9,1.95
459460,A6DF5378-798B-4473-8F73-4C1597E486A6,"KSL CITY MALL, JOHOR BHARU (Shopping Mall)",KSL City Mall,nan,Johor Bahru,Johor,80250,,1.485375,103.762886,,3,Venue multi-bay heuristic,0,5.86,1.95
459459,69912029-5882-4DEC-A535-B5265D9D530C,GRAND PARAGON HOTEL (Hotel),"Grand Paragon Hotel, Johor Bahru",nan,Johor Bahru,Johor,80250,,1.481227,103.761909,,6,Venue multi-bay heuristic,0,6.96,1.16
459458,0BDBEA7E-C7AA-4885-9CED-E6287E99FDA7,COLUMBIA ASIA HOSPITAL - ISKANDAR PUTERI (Medical),Persiaran Afiat,nan,Johor Bahru,Johor,79250,,1.479415,103.63723,,2,Default AC heuristic,0,2.06,1.03
459457,A1926385-41CA-4DD7-B9CE-609FE534D49D,[Restricted] TWIN GALAXY (OUTDOOR) (Residential Condo),Twin Galaxy Residences,nan,Johor Bahru,Johor,80300,,1.478155,103.761795,,1,Default AC heuristic,0,4.14,4.14
459456,C35710D6-4A81-4B84-80FA-CDD38F106A83,HOTEL HOLMES GP (Hotel),Hotel Holmes GP,nan,Gelang Patah,Johor,81550,,1.478101,103.583595,,6,Venue multi-bay heuristic,0,6.28,1.05
459455,AD32ACE3-6ECC-415D-8BF8-80C5DC7DCDA3,[Restricted] TWIN GALAXY (BASEMENT 1) (Residential Condo),Twin Galaxy Residences,nan,Johor Bahru,Johor,80300,,1.477868,103.76207,,2,Default AC heuristic,0,4.24,2.12
459454,525EB71F-8A8E-4459-A087-AC95E00C9515,HOTEL HAKO JBCC (Hotel),Hako Hotel JBCC,nan,Johor Bahru,Johor,80300,,1.467939,103.76989,,3,Venue multi-bay heuristic,0,5.28,1.76
459453,F4521608-5E52-44B7-9317-F6C3E1461266,[PARTNER EVHUB] MENARA LANDMARK (Commercial),Menara Landmark,nan,Johor Bahru,Johor,80000,,1.465002,103.760117,,4,Venue multi-bay heuristic,0,5.19,1.3
459452,38663BB6-0743-4EFA-BB37-BDA708CBCC63,[Restricted] D'SUITES AKASIA HORIZON (Residential Condo),D' Suites Akasia Horizon,nan,Johor Bahru,Johor,79100,,1.448387,103.628876,,2,Default AC heuristic,0,2.27,1.14
459451,D0C6722B-3C2B-42ED-BBFD-D793B4CD8A0E,[Restricted] MERIDIN MEDINI EXECUTIVE SUITES (OUTDOOR) (Residential Condo),Pangsapuri Meridian Medini,nan,Iskandar Puteri,Johor,79250,,1.421901,103.628975,,2,Default AC heuristic,0,3.5,1.75
459450,BC857BD7-7AD4-447D-BD6D-BBC74F5A6951,[Restricted] SOUTHERN MARINA RESIDENCES (WEST TOWER) (Residential Condo),Southern Marina Residence,nan,Johor Bahru,Johor,79100,,1.413567,103.657974,,2,Default AC heuristic,0,5.82,2.91
459449,C42E81CF-42BF-4697-BD6B-A335AFEBFA39,[Restricted] SUNWAY GRID RESIDENCE (Residential Condo),Sunway GRID Residence,nan,Iskandar Puteri,Johor,79250,,1.396111,103.632355,,6,Venue multi-bay heuristic,0,7.11,1.18
459422,2C3EB7B8-080D-4FCF-8A02-A431835928DB,BHPetrol Persiaran Tengku Ampuan 1 by DC Handal,Persiaran Tengku Ampuan 1,Jalan 22/6,Shah Alam,Selangor,40400,,3.039951867,101.5477882,,1,Default AC heuristic,0,3.54,3.54
458998,9877667E-02A9-40FA-976E-FAE9F429C7F3,Casa Refleksologi,"No.7, Jalan Anggerik Indah, Taman Anggerik Indah",nan,Triang,Pahang,28300,,3.255742761,102.4295253,,1,Default AC heuristic,0,1.21,1.21
458997,BAC50BED-9653-47B2-8113-2CFA3216A914,Hotel Nur,"C76, Jalan Dato' Ngau Ken Look",nan,Temerloh,Pahang,28000,,3.446718896,102.4129401,,2,Default AC heuristic,0,3.75,1.87
458996,58BB95FB-7CA4-443A-A25F-7369C2FFD169,Hotel Jelai,"Jalan Tengku Ismail, Kampung Batu Satu",nan,Temerloh,Pahang,28000,,3.446378283,102.413575,,2,Default AC heuristic,0,2.56,1.28
456362,FBF5D0C0-F1FE-496D-8460-C5E0C8270E0E,Pitstop @ Tangkak,"Outdoor Carpark Lot Ptd 16031, Jln Teknologi","1, Kawasan Perindustrian Tangkak",Tangakak,malaysia,16032,,2.243312714,102.5316403,,2,Default AC heuristic,0,5.55,2.78
313016,D553AFD9-83B8-4710-88C6-ED3CF1FE8845,ChargeEV,"No.141, Pusat Komersial Changloon, Pekan, Kampung Baru Changloon, 06010 Changlun, Kedah",nan,Changlun,Kedah,6010,,6.436811326,100.4298934,,1,Default AC heuristic,0,1.32,1.32
312710,84973F76-DF2D-4707-8101-56FA3254BD1B,Dataran Bentong,740 Jalan Tras,Kampung Chamang,Bentong,Pahang,28700,,3.527695327,101.9052646,,1,Default AC heuristic,0,2.06,2.06
312365,9F4BFB3C-843F-46B3-9622-3A1D0B5351DD,Tealive Bagan Ajam,Jalan Oren,Taman Terbilang,Butterworth,Pulau Pinang,13000,,5.440049643,100.3821112,,1,Default AC heuristic,0,2.51,2.51
312364,1895BD10-95DF-4AD6-8733-B57AC51E1626,BYD Showroom Bukit Mertajam Iroll EV,Lorong Setia Sentral 2,nan,Perai,Pulau Pinang,13600,,5.354625431,100.4196651,,2,Default AC heuristic,0,5.77,2.88
312363,C04C5DDB-1F28-419C-9005-7BCA07203D50,Starbucks Raja Uda DT,"2020, Jalan Raja Uda",Telok Air Tawar,Butterworth,Pulau Pinang,12300,,5.414816874,100.3814131,,2,Default AC heuristic,0,3.59,1.8
311714,3C979E35-D000-4437-A905-06F6FDFE3821,GO TO-U CHARGING HUB @ PANTAI BATU BUROK,Tmn Awam Batu Buruk,nan,Kuala Terengganu,Terengganu,20400,,5.320609078,103.1544081,,1,Default AC heuristic,0,1.68,1.68
311713,2C859F12-12AF-48B9-8972-B4919DCF63B3,GO TO-U CHARGING HUB @ DATARAN SHAHBANDAR,Jalan Sultan Zainal Abidin,"Dataran Syah,",Kuala Terengganu,Terengganu,20000,,5.336942839,103.1409293,,1,Default AC heuristic,0,2.56,2.56
311405,9DD11F02-B373-4F94-9DE6-3D2E8B6A2E6B,De'ahza Homestay Gurun,"17, Lorong 24, Taman Gurun Jaya, 08300 Gurun, Kedah, Malaysia",nan,Gurun,Kedah,8300,,5.816872447,100.4701902,,1,Default AC heuristic,0,1.54,1.54
311392,D288A7C1-292E-434E-B044-301DF2B6B1AD,Medini EV Forecourt by DC Handal,Lebuh Medini Utara 8,nan,Iskandar Puteri,Johor,79250,,1.429770183,103.6328238,,1,Default AC heuristic,0,2.41,2.41
311391,089942C8-75C5-4114-B207-AC1686AF677C,Kuantan City Mall (P4) by DC Handal,Kuantan City Mall Pillar (P4),"Jalan Putra 6, Putra Square",Kuantan,Pahang,25300,,3.81750868,103.3275722,,4,Venue multi-bay heuristic,0,6.7,1.68
311390,77E9CAE5-7175-4650-99ED-34F4310036AF,MH Hotel Ipoh by DC Handal,"Hotel Lobby Level, MH Hotel Ipoh,","Jalan Medan Ipoh 1A, Medan Ipoh Bestari, 31400 Ipoh, Perak",Ipoh,Perak,31400,,4.621733039,101.1171502,,7,Venue multi-bay heuristic,0,4.26,0.61
311348,813D69E8-AF67-44EE-8290-619E55A1DC3F,JPO Commercial EV Hub by DC Handal,"Jalan Premium Outlets, Bandar Indahpura,",nan,Kulai,Johor,81000,,1.603330379,103.6234476,,2,Default AC heuristic,0,5.2,2.6
311299,1FCBE749-A89C-4573-BF1E-781CB488B884,C-Mart Menara Alor Setar by DC Handal,Jalan Istana Kuning,nan,Alor Setar,Kedah,5100,,6.125105797,100.3687528,,2,Default AC heuristic,0,2.67,1.33
311278,628D5842-1303-46B3-89F3-C0A3C5EBE1D6,EI Charge Bukit Tinggi,"15, Jalan Pesona 1, Taman Pesona Height, Jln Bukit Tinggi, Kampung Bukit Tinggi",nan,Bentong,Pahang,28750,,3.353874485,101.8272264,,1,Default AC heuristic,0,2.43,2.43
308756,D504899D-965E-435F-9430-698E49638425,Smart Pulau Pinang,"169, Jalan Jelutong",nan,Jelutong,Pulau Pinang,11600,,5.400445225,100.3233625,,2,Default AC heuristic,0,6.37,3.19
307699,78CFB252-CAF0-404A-979C-F466697D0711,AmanJaya Walk by DC Handal,Jalan Badlishah,nan,Sungai Petani,Kedah,8000,,5.67543,100.50787,,1,Default AC heuristic,0,1.73,1.73
306732,E64CFB39-28BB-4AB7-9769-E096C6CD5012,United Point Mall Segambut by DC Handal,Jalan 1/38C,Segambut,Kuala Lumpur,Kuala Lumpur,52000,,3.190740678,101.6533967,,2,Default AC heuristic,0,4.27,2.13
306731,00616B2B-3CB3-4A2F-92AA-29958F5320CC,ICE Sales Gallery by DC Handal,Jalan Pantai Sentral 1,Pantai Dalam,Kuala Lumpur,Kuala Lumpur,58000,,3.101579018,101.6669242,,1,Default AC heuristic,0,7.06,7.06
306730,8FC08D5C-760A-4370-A9D5-0E2347990B04,Pulse Grande Hotel Putrajaya by DC Handal,Jalan Putra Perdana,nan,Putrajaya,Putrajaya,62519,,2.943339512,101.6999759,,2,Default AC heuristic,0,4.74,2.37
305583,6EDCEABA-F23C-48EF-A1AB-E4E394B9091B,Petronas NKVE,"Lot 15385 KM 15, 3, New Klang Valley Expy, Damansara Bound",nan,Petaling Jaya,Selangor,47000,,3.119187,101.592813,,2,Default AC heuristic,0,3.04,1.52
305530,673AFBBC-8BFE-47F4-A407-5C49B1F9F0DE,Gamuda Gardens (200kW DC x 4),"Waterfront Village,",Persiaran Gamuda Gardens 1,Rawang,Selangor,48050,,3.28348366,101.5402588,,2,Default AC heuristic,0,3.53,1.76
304542,AF5CD698-EC94-4E55-85B0-DEBA110DB9B6,Petron Kg. Gemuroh (TNB Electron),Lot PT 102422,Jalan Kelantan,Kampung Gemuroh,Terengganu,21060,,5.349086719,103.0190876,,1,Default AC heuristic,0,1.73,1.73
303964,10D4CBD3-ECD0-4BBE-A973-1D94B95CA9B8,Gurney Plaza,B1 Car park,"170, Gurney Dr, Pulau Tikus",George Town,Pulau Pinang,10250,,5.437956612,100.3097707,,2,Default AC heuristic,0,5.13,2.57
302725,ADC15DC7-31C7-4AF4-9C16-86F0046B6489,"ParkEasy @ Shell HPC East Coast (LPT),Paka, Terengganu (KTN BOUND)","Toll road Paka North Bound, LPT,",nan,Paka,Terengganu,23000,,4.647272585,101.7310334,,2,Default AC heuristic,0,2.85,1.43
302724,F6E092EA-458F-4B2C-80CF-B5C471EE9405,"ParkEasy @ Shell HPC East Coast (LPT), Paka, Terengganu (KL BOUND)","Toll road, LPT",nan,Paka,Terengganu,23000,,4.645522438,103.3443739,,2,Default AC heuristic,0,3.63,1.82
302723,44C2A2EA-CB40-4E5D-AAF6-83732A3916B6,"ParkEasy @ Shell HPC East Coast (LPT), Perasing - Terengganu","Perasing R&R, LPT",nan,Kemaman,Terengganu,24000,,4.020795568,103.3139921,,1,Default AC heuristic,0,3.01,3.01
302466,C6F7CDF7-E8E0-4981-91A3-BF2E16EBFD1C,AEON Mall Kinta City (TNB Electron),"No 2, Jalan Teh Lean Swee",Off Jalan Sultan Azlan Shah Utara,Ipoh,Perak,31400,,4.61404,101.11803,,2,Default AC heuristic,0,3.83,1.91
302465,14C4F956-D571-43AB-9199-0C5BDFC415D2,AEON Mall Taiping (TNB Electron),Lot 8576 & 8577,Jalan Kamunting,Taiping,Perak,34000,,4.87335,100.73086,,1,Default AC heuristic,0,2.97,2.97
302210,37DCE0A8-81AF-4DCC-8BF8-E33A2FAB3E0D,Jalan Maulana Khurasan,Jalan Maulana Khurasan,Kampung Sireh,nan,Kelantan,15150,,6.108795212,102.2303845,,1,Default AC heuristic,0,3.4,3.4
302209,907EF02C-91AC-4083-9E40-24555C2BBC97,AEON Mall Seri Manjung (TNB Electron),"Jalan Sitiawan, Lumut, 32200, Perak.",nan,Lumut,Perak,32040,,4.221061351,100.671411,,2,Default AC heuristic,0,3.57,1.78
301867,9FDA18D4-B2B3-48E3-9BC6-F4F1919D53F0,Encore Melaka by DC Handal,"Jalan Persisiran Pantai, Taman Limbongan Jaya,",nan,Malacca City,Malacca,75200,,2.188618578,102.2200332,,1,Default AC heuristic,0,2.19,2.19
301623,68950D53-8DB2-402E-B9AF-F0CC90B5284F,XPENG Glenmarie by DC Handal,"5, Jalan Pelukis U1/46",Glenmarie,Shah Alam,Selangor,40150,,3.088297088,101.5753787,,1,Default AC heuristic,0,4.23,4.23
301288,B799C539-E0BB-447D-8DE8-B870FA764CA7,Shell Bukit Jalil,Lebuhraya Kuala Lumpur–Seremban,Sungai Besi,nan,Kuala Lumpur,57000,,3.055609064,101.7042648,,1,Default AC heuristic,0,4.14,4.14
301217,F66A55DD-A083-4EF0-9033-0999939E255D,Gamuda Cove,Gamuda Cove Main Road,nan,nan,Selangor,63300,,2.88508223,101.6172595,,2,Default AC heuristic,0,4.3,2.15
301067,FB980F1A-4734-44A9-89C7-5E1E5EF50133,WCE E32 Trong Toll Plaza by DC Handal,MPWF+X8 Terong,nan,Trong,Perak,34800,,4.697722841,100.7228712,,2,Default AC heuristic,0,3.07,1.54
300453,2EDDE999-4562-4232-84A6-998B6AE2A62F,WCE E32 Trong Toll Plaza by DC Handal,"MPXC+GH,",nan,Terong,Perak,34800,,4.69778,100.72284,,1,Default AC heuristic,0,3.12,3.12
300078,14D8A8DF-1402-4A16-8E81-44E40E99C981,Menara MATRADE West Wing by DC Handal,"West Wing Menara MATRADE,","Jalan Sultan Haji Ahmad Shah,","Kuala Lumpur,",Wilayah Persekutuan Kuala Lumpur,50480,,3.177577,101.666105,,4,Venue multi-bay heuristic,0,11.67,2.92
300077,5035B99C-CB8B-4B6A-81BD-F1C0EC902CAC,MG Motor Petaling Jaya by DC Handal,"Lot 8241, Ground Floor,","Jalan 225, Seksyen 51A,","Petaling Jaya,",Selangor,46100,,3.095361121,101.6327791,,2,Default AC heuristic,0,3.3,1.65
299969,3ABB8E44-FEF4-43EA-BFA3-E0F20523A252,WCE E32 Taiping Selatan Toll Plaza by DC Handal,"QP8G+RH,",nan,"Changkat Jering,",Perak,34850,,4.76716508,100.7270956,,2,Default AC heuristic,0,3.33,1.66
299968,792FA4BF-99F0-421C-9B4D-55FCEE938F6D,C-Mart Nibong Tebal by DC Handal,Taman Perindustrian Nibong Tebal,nan,Nibong Tebal,Pulau Pinang,14300,,5.178504948,100.4812209,,2,Default AC heuristic,0,4.99,2.5
299781,C18BF170-AC29-4618-9502-5D60A54B0879,Persiaran TESCO,Persiaran TESCO,nan,nan,Perak,31600,,4.49442565,101.1548925,,2,Default AC heuristic,0,2.39,1.2
299716,BB94723E-8020-44E0-B061-A615CB53C1D7,JomCharge - Hentian Sebelah Senawang Southbound,"Km249.9, Jalan Lebuhraya Utara Selatan",nan,Senawang,Negeri Sembilan,71900,,2.640266214,101.9958084,,1,Default AC heuristic,0,3.7,3.7
299471,1B81662B-5EB6-490E-A501-691CF936B9C4,Kelab Golf Perkhidmatan Awam (KGPA),Bukit Kiara,nan,Petaling Jaya,Selangor,60000,,3.130227986,101.6435829,,1,Default AC heuristic,0,4.38,4.38
299457,07AAE9B2-EF8D-484E-ADDB-9121D3A25B14,IJM Bayouri Sales Gallery Jawi Pulau Pinang by DC Handal,"IJM Bayouri Sales Gallery Jawi,",Sungai Jawi,Sungai Jawi,Pulau Pinang,14200,,5.19324762,100.4881337,,2,Default AC heuristic,0,7.35,3.67
299323,B6C80C10-FCF8-4AE8-B0E9-FB3D12DA508B,IOI City Mall Putrajaya LG Zone D by DC Handal,"LG Zone D, IOI City Mall,","IOI Resort City, Lbh IRC,",Putrajaya,Wilayah Persekutuan Putrajaya,62502,,2.969149836,101.7145284,,6,Venue multi-bay heuristic,0,6.04,1.01
299297,16545E0C-BCB2-4AE2-9DAF-092E38956D82,Johor Premium Outlets Kulai by DC Handal [200 kW Dynamic DC],"Johor Premium Outlets, Persiaran Indahpura",Bandar Indahpura,Kulai,Johor,81000,,1.603002089,103.622509,,2,Default AC heuristic,0,4.82,2.41
299296,683B66C2-4FC8-4DDD-B7E9-930DD75E6322,Desaru Coast Riverside Johor by DC Handal [200 kW Dynamic DC],Persiaran Pantai,Desaru,nan,Johor,81930,,1.538585746,104.2642871,,2,Default AC heuristic,0,2.56,1.28
299295,8EEDCE8A-B30E-49CC-BDD0-01C6AFD55D1B,The Pines Melaka by DC Handal [100 kW Dynamic DC],"33, Jalan Tun Sri Lanang",Kampung Ketek,Malacca City,Malaka,75100,,2.204440448,102.2524293,,1,Default AC heuristic,0,2.33,2.33
299294,2C0D571B-E130-48C3-9F11-EB7CEC2AC596,Wisma UOA Damansara II by DC Handal [200 kW Dynamic DC],"Wisma UOA Damansara II, 50, Jalan Dungun,","Bukit Damansara,",Kuala Lumpur,Wilayah Persekutuan Kuala Lumpur,50490,,3.15156691,101.6664755,,2,Default AC heuristic,0,3.75,1.88
299293,E8333B4F-81FA-4F93-8A6C-84D06BAE751C,UOA Business Park Glenmarie by DC Handal [200 kW Dynamic DC],"UOA Business Park Glenmarie, J","alan Pengaturcara U1/51, Kawasan Perindustrian,",Shah Alam,Selangor,40150,,3.085729062,101.5869069,,6,Venue multi-bay heuristic,0,7.61,1.27
299196,DC9CC55F-F5B3-4A09-95A7-3FBCFF05945C,Bamboo Hills DUKE by DC Handal,"Bamboo Hills, Off Lebuhraya Duta","Ulu Kelang, Taman Bamboo",Kuala Lumpur,Wilayah Persekutuan,51200,,3.194041642,101.6729291,,1,Default AC heuristic,0,4.25,4.25
299195,CB253DA6-52E8-4791-BADC-0B240A2289A3,Wisma MCA Jalan Ampang by DC Handal,"163, Jalan Ampang",nan,Kuala Lumpur,Wilayah Persekutuan,50450,,3.159974063,101.7165712,,2,Default AC heuristic,0,3.88,1.94
299194,936E49DC-F7C1-4D5E-ABF6-D3127EB3DDBA,Bangsar South The Vertical (Lazada HQ) by DC Handal,"The Vertical, Bangsar South,","No. 8, Jalan Kerinchi, Bangsar South,",Kuala Lumpu,Wilayah Persekutuan,59200,,3.111356445,101.6656638,,2,Default AC heuristic,0,2.42,1.21
299193,ECA74D93-EE03-489E-B5CC-A70037560335,Bangsar South The Vertical B1 by DC Handal,Jalan Kerinchi,Pantai Dalam,Kuala Lumpur,Kuala Lumpur,59200,,3.111413746,101.6656995,,2,Default AC heuristic,0,5.59,2.8
299183,046002E6-6B9D-4968-8784-0D5409C1C1D9,Bangsar South The Sphere UG by DC Handal,"The Sphere Upper Ground, Bangsar South,","No. 8, Jalan Kerinchi, Kuala Lumpur",Kuala Lumpur,Wilayah Persekutuan,59200,,3.110915219,101.6678418,,2,Default AC heuristic,0,6.08,3.04
299182,0FE4BD1F-2FFA-4C1B-AD39-C89132DC2CAB,Bangsar South The Horizon B1 by DC Handal,"B1, The Horizon 1, Bangsar South,","No.8, Jalan Kerinchi,",Kuala Lumpur,Wilayah Persekutuan,59200,,3.110894169,101.6677758,,1,Default AC heuristic,0,2.11,2.11
299181,06184FFE-DB9D-4939-ACE9-2B887437658B,Udini Square Gelugor Pulau Pinang by DC Handal,"B1, Udini Square,","Lebuh Tunku Kudin 3,",Gelugor,Pulau Pinang,11700,,5.378289281,100.3141606,,2,Default AC heuristic,0,7.72,3.86
299180,BB59B12E-D908-4529-8C5F-67F3CF1FD73E,Choo Plaza Georgetown by DC Handal,"41, Lorong Abu Siti,",Choo Plaza,George Town,Pulau Pinang,10400,,5.417975662,100.3237609,,2,Default AC heuristic,0,7.28,3.64
299179,FB053EFE-6E42-4918-8743-9F47250FDBAD,Ferringhi Garden Restaurant by DC Handal,"34, Jalan Batu Ferringhi,",Kampung Batu Feringgi,"Batu Ferringhi,",Pulau Pinang,111000,,5.47126,100.24517,,2,Default AC heuristic,0,7.43,3.71
298947,EB203E3E-8B5E-472B-9A62-01CC6E32E394,WCE E32 Assam Jawa Toll Plaza by DC Handal,WCE Assam Jawa Toll Plaza,nan,nan,Selangor,45700,,3.313356652,101.3741929,,1,Default AC heuristic,0,3.04,3.04
298380,85FD22D5-8A78-4500-B1E7-30B369DB4AA5,Petronas R&R Gunung Semanggol South bound,Jalan Bukit Merah,nan,nan,Perak,34400,,4.98831718,100.6655379,,1,Default AC heuristic,0,1.65,1.65
298146,8690CCEE-78FD-47E4-BABE-3115C37FCF48,Lebuhraya Utara–Selatan,Lebuhraya Utara–Selatan,nan,Behrang,Perak,35950,,3.783416918,101.4461871,,1,Default AC heuristic,0,2.55,2.55
298145,6D8F345B-3413-4EC5-9122-D8FEA1E619A0,"JomCharge, R&R Ulu Bernam",North-South Expy,Ulu Bernam,Tanjong Malim,Selangor,50480,,3.662865281,101.5206181,,1,Default AC heuristic,0,4.85,4.85
297693,746F5C1B-1939-49ED-8685-04130152F190,ParkEasy @ Shell HPC Central,"LOT 117230 (TAPAK C), PUCHONG GATEWAY, BANDAR PUTRA PERMAI",nan,PETALING,SELANGOR,47110,,2.980460415,101.6471894,,2,Default AC heuristic,0,5.5,2.75
297559,DD5945A9-D56B-4BE1-920C-2BA42114D1D4,Handal Indah Depot,23 Jalan Firma 2,nan,Tebrau,Johor,81100,,1.534186684,103.7464204,,1,Default AC heuristic,0,2.07,2.07
297551,A5E0230C-E180-4296-8189-4B4EF97A48B5,Hentian Gua Musang by DC Handal [47 kW Dynamic DC],"Lot 10280,","Jalan Gua Musang-Kuala Lipis Tanah Putih,",Gua Musang,Kelantan,18300,,4.826540698,101.9626737,,2,Default AC heuristic,0,3.71,1.86
297400,0F370BF4-A202-463D-A0BA-5D76472B36C8,JomCharge - Hentian Sebelah Senawang North Bound,"KM248.4, JALAN LEBUHRAYA UTARA-SELATAN",nan,LABU,NEGERI SEMBILAN,71900,,2.629898588,101.99864,,2,Default AC heuristic,0,2.27,1.14
297133,F9015C1E-C477-48F2-9A39-7551C07461C2,Jom Charge - McD Pantai Sentral Park,"2, Jalan Pantai Sentral",Bukit Kerinchi,KL,W.P. Kuala Lumpur,59200,,3.102138798,101.6666013,,2,Default AC heuristic,0,5.55,2.78
297031,E33BDB82-3270-49EC-B617-A44969EC5A5A,ParkEasy @ Da Men Mall,"1, Persiaran Kewajipan, Usj 1",nan,Subang Jaya,Selangor,47600,,3.057436494,101.5922634,,2,Default AC heuristic,0,5.87,2.94
297030,A3A13F47-48AA-40C3-8C85-4B5CAC10E695,ParkEasy @ Highlands Hotel Genting (Open air carpark),"Highlands Hotel, Resorts World Genting",nan,Genting Highlands,Pahang,69000,,3.424090636,101.7913759,,3,Venue multi-bay heuristic,0,4.45,1.48
297029,6C357E73-CC0B-4F20-97E6-2425EABFBE4B,ParkEasy @ Impian Golf & Country Club,"Jalan Impian Gemilang, Saujana Impian",nan,Kajang,Selangor,43000,,3.01749,101.795035,,1,Default AC heuristic,0,4.41,4.41
295988,EC21660E-73B8-468E-9FF1-F8B0CC2A6FB6,Juru Setia Sentral (TNB Electron),Setia Sentral Juru,Juru Rest & Service Area Southbound,Perai,Pulau Pinang,13600,,5.354746141,100.4184435,,2,Default AC heuristic,0,5.79,2.89
295953,1B55C6AC-76D3-4432-9B57-7EB3FF183D84,ParkEasy @  Pavilion Hotel,"170, Jln Bukit Bintang, Bukit Bintang",nan,Kuala Lumpur,Wilayah Persekutuan Kuala Lumpur,55100,,3.148407674,101.7152416,,1,Default AC heuristic,0,3.24,3.24
295952,A588D9A6-9FEA-4B6B-A055-E932DB1BBF66,ParkEasy @ Banyan Tree KL,"2, Jalan Conlay",nan,Kuala Lumpur,Wilayah Persekutuan Kuala Lumpur,50450,,3.149978959,101.7139764,,1,Default AC heuristic,0,2.65,2.65
295951,3F06E281-C5A8-42E2-8931-F84691D2B0B7,ParkEasy @ Pavilion Bukit Jalil AC,"2, Persiaran Jalil 8, Bukit Jalil",nan,Kuala Lumpur,Wilayah Persekutuan Kuala Lumpur,57000,,3.053060798,101.6729236,,2,Default AC heuristic,0,7.8,3.9
290926,547B3F83-45A5-4FB3-B47F-55CD655E4F95,Jalan Padang Matsirat,Jalan Padang Matsirat,nan,nan,Kedah,7000,,6.324573583,99.79657741,,2,Default AC heuristic,0,1.46,0.73
290709,7F72C19B-4B5F-4890-A1A6-80F1FFDB8F40,Nadi Bangsar,Jalan Tandok,Bangsar,nan,W.P. Kuala Lumpur,59000,,3.126061588,101.6758592,,1,Default AC heuristic,0,1.53,1.53
290708,D5C8E451-CA16-4133-AB77-F66B19443B95,Starbucks Kuantan Indera Mahkota Dt,Jln IM 7/1,Bandar Indera Mahkota,nan,Pahang,25200,,3.83400581,103.2992826,,2,Default AC heuristic,0,7.56,3.78
290707,FB4E9987-AE15-4A05-B6E5-75792A7BBF81,Jalan Kuala Lumpur – Kuantan,Jalan Kuala Lumpur – Kuantan,nan,nan,Pahang,26070,,3.711308421,103.1269648,,1,Default AC heuristic,0,2.6,2.6
289617,9959E986-7243-457A-854D-A32F78DC6171,Petronas KLIA 1 (45kW DC),"Petronas Pt3906, Jalan Terminal",nan,Sepang,Selangor,43900,,2.764389802,101.6831083,,1,Default AC heuristic,0,2.57,2.57
289127,9673FB1A-5F0A-40A2-AA6B-773566B8FCA5,Permy Mall Miri,Jalan Dato Seri Joseph Balan Seling,Desa Pujut,Bandar Baru Permyjaya,Sarawak,98000,,4.449624925,114.0376664,,1,Default AC heuristic,0,2.55,2.55
289126,73DEFF70-CD1F-4A8A-9779-2871C7D1D5EC,SEB Miri,Sesco,Piasau,nan,Sarawak,98000,,4.421063217,114.0178489,,2,Default AC heuristic,0,6.52,3.26
289125,D1E5FFEF-E37B-43B3-8D6A-BA69DEF297BD,Miri Green Community Hub,Jalan Yakin,Krokop,nan,Sarawak,98000,,4.41435096,114.0059302,,2,Default AC heuristic,0,2.83,1.42
289124,FD49FE46-400A-4183-9CE5-9A6AA0C75F6C,Miri City Hall,Jalan Bandaraya,Marina Bay,nan,Sarawak,98000,,4.38774624,113.9736372,,2,Default AC heuristic,0,2.61,1.31
289123,36F5BAFA-7FED-4F82-BF8F-50C5156A71EE,The Spring Bintulu,Bintulu Promenade,nan,nan,Sarawak,97000,,3.180947501,113.0349398,,2,Default AC heuristic,0,4.67,2.33
289122,5CFFF9AE-ED9C-4C44-B733-28633357CC7C,SEB Sibu,Jalan Deshon,nan,nan,Sarawak,96000,,2.307778742,111.8622752,,1,Default AC heuristic,0,3.78,3.78
289121,FDF96132-CFA5-4200-A8B5-42CC175AF32B,Wisma Sanyan,Jalan Sanyan 三洋路,nan,nan,Sarawak,96000,,2.290446588,111.8255453,,1,Default AC heuristic,0,3.2,3.2
289120,ADF1B082-5960-4284-9A7F-33AB5951AE7D,Roxy Serian,Jalan Bandar Serian,nan,nan,Sarawak,94700,,1.174373532,110.5657769,,2,Default AC heuristic,0,4.64,2.32
289119,499C1EDE-0231-440E-B66A-977851300E7F,Sematan Roxy Hotel,Jalan Seacom,nan,nan,Sarawak,nan,,1.825370293,109.7521441,,2,Default AC heuristic,0,2.65,1.32
289118,9E160AAA-ECF4-4984-B65F-B5248952E705,Damai Beach Resort,Jalan Sultan Tengah,nan,nan,Sarawak,nan,,1.748418132,110.3144695,,1,Default AC heuristic,0,2.72,2.72
289117,88EBA460-1229-4777-96D7-21F76A4C09A9,CENTEXS,Jalan Sultan Tengah,nan,nan,Sarawak,nan,,1.675509789,110.3427111,,1,Default AC heuristic,0,2.3,2.3
289116,EA8A937F-0F37-4507-B447-B27394C164DF,Petros Darul Hana,Jalan Tun Salahuddin,Petra Jaya,nan,Sarawak,93000,,1.565038479,110.3657013,,1,Default AC heuristic,0,1.66,1.66
289115,093BAE4B-F32C-4D38-8428-1C28F3C30CEE,iCom Square ChargEV,Jalan Pending,nan,nan,Sarawak,93450,,1.551519395,110.37296,,2,Default AC heuristic,0,4.23,2.12
289114,94617C5B-7F76-443D-8B3B-43FC8A5F400F,iCom Square x Gentari,Jalan Pending,nan,nan,Sarawak,93000,,1.550735826,110.371323,,2,Default AC heuristic,0,4.53,2.26
289044,FAE8DFC8-14B5-4C54-A659-4615B48EFD4D,Waterfront Hotel,Jalan Tun Abang Haji Openg,nan,nan,Sarawak,93000,,1.558624243,110.3446217,,1,Default AC heuristic,0,2.75,2.75
289043,52A1FEF5-759F-44C4-A1F8-6A72B2EAC46D,Mederka Plaza,Jalan Barrack,nan,nan,Sarawak,93000,,1.558248695,110.3438109,,1,Default AC heuristic,0,2.49,2.49
289042,14DAA382-924B-4DF4-AAD7-9FBCBA7BB657,The Podium,Jalan Tun Ahmad Zaidi Adruce,nan,nan,Sarawak,93000,,1.527539714,110.335858,,2,Default AC heuristic,0,3.49,1.75
285135,C99E981B-8F52-4CBE-BACF-37C70A3D2FB7,Copthorne Cameron Highlands,Kea Farm,Brinchang,Cameron Highlands,Pahang,39100,,4.504877262,101.4087164,,2,Default AC heuristic,0,1.73,0.86
280188,FFE0BF80-0A97-4B42-9854-54E4E764B761,Lebuhraya Utara–Selatan,Lebuhraya Utara–Selatan,nan,nan,Melaka,78000,,2.445081603,102.2060916,,2,Default AC heuristic,0,4.91,2.45
280129,F6E6E6CA-0A9D-4E66-B068-F9644A6EF3AE,ParkEasy @ Horizon Hills Golf & Country Club,"1, Jalan Eka Bandar Nusajaya",nan,Johor Bahru,Johor,79100,,1.447302813,103.6389193,,1,Default AC heuristic,0,3.07,3.07
279461,3B319BE1-F32C-4F9D-9E63-98A339C50465,ParkEasY @ Lim Tayar TTDI,"Lot 29398 & 41313, Pinggir Zaaba",Taman Tun Dr Ismail,nan,Kuala Lumpur,60000,,3.141400799,101.6264088,,2,Default AC heuristic,0,4.87,2.43
279460,E45B40AC-A10D-49E9-9A0B-CA0965D29C75,ParkEasy @  Pavilion KL,"Pavilion Kuala Lumpur, 168 Jalan Bukit Bintang",nan,nan,Kuala Lumpur,55100,,3.150626549,101.7076361,,4,Venue multi-bay heuristic,0,8.16,2.04
279459,8323A290-E465-42C2-97B3-8F9089B957CB,"ParkEasy @ IOI Connezion, Putrajaya","Blok A, Conezion, IOI Resort City",nan,Putrajaya,Putrajaya,62502,,2.964514353,101.721493,,5,Venue multi-bay heuristic,0,6.36,1.27
279111,47457A01-5574-4F75-946A-C46D3B2967CF,ParkEasy @ Paradigm Mall JB,Jalan Skudai,nan,Johor Bahru,Johor,81200,,1.518099342,103.6816812,,2,Default AC heuristic,0,3.68,1.84
278507,29D17635-2D8D-4ECF-A371-4F5D4EB5F5CD,XPark Sunway City Ipoh,"No. 1, Persiaran Lagun,",Sunway City,Ipoh,Perak,31150,,4.620188136,101.1483152,,1,Default AC heuristic,0,2.54,2.54
274443,C8AB45A8-4854-4FEA-9189-58EE22E54653,ParkEasy @ Decathlon Gurney Paragon,"163d, Persiaran Gurney",nan,George Town,Pulau Pinang,10250,,5.435069471,100.3102113,,7,Venue multi-bay heuristic,0,8.78,1.25
274442,C7C66240-81C8-4E36-832F-CADEC5585C15,ParkEasy @ Decathlon Shah Alam,"Persiaran Damai, Seksyen 14",nan,Shah Alam,Selangor,40000,,3.0695478,101.5252075,,1,Default AC heuristic,0,4.08,4.08
274441,F4DC25FC-F0CA-4CC7-9309-456DC8DCBBCE,ParkEasy @ Hyatt Regency Kuantan,Teluk Cempedak,nan,Kuantan,Pahang,25050,,3.8117328,103.3717045,,1,Default AC heuristic,0,2.1,2.1
274440,7A084402-8257-42E8-8320-6A5A229BBBFF,ParkEasy @ MyTOWN Shopping Centre,"Level 3, No.6, Jalan Cochrane, Seksyen 90",Maluri,nan,Kuala Lumpur,55100,,3.134935653,101.7229199,,2,Default AC heuristic,0,5.57,2.78
274419,BAFB050B-5CE5-4585-A0A0-CC9355AB4A3E,KSL AUTOMOBILE ENTERPRISE,Lorong 3,Taman Alam Shah,Klang,Selangor,41050,,3.032048874,101.4722557,,1,Default AC heuristic,0,1.96,1.96
272739,C6509D3A-41AD-4391-B657-1F111DC220F2,ParkEasy @ Sunway Medical Centre,"5, Jalan Lagoon Selatan, Bandar Sunway",nan,Petaling Jaya,Selangor,47500,,3.066321094,101.6086581,,7,Venue multi-bay heuristic,0,10.16,1.45
272738,1FE332B2-7E62-48B5-A186-54E3BBDB8C53,ParkEasy @ Thomson Hospital,"11, Jalan Teknologi, Pju 5 Kota Damansara",nan,Petaling Jaya,Selangor,47810,,3.149057099,101.5792615,,2,Default AC heuristic,0,6.83,3.42
272737,D2754FC0-9482-4F15-BE1E-680C9554D8D7,ParkEasy @ Sunway Pyramid,"No. 3, Jalan PJS 11/15, Sunway City",nan,Petaling Jaya,Selangor,47500,,3.073018093,101.6075207,,5,Venue multi-bay heuristic,0,4.37,0.87
272736,F766735A-DAA0-40FF-AEE8-E40F1D2EAF1B,ParkEasy @ DC Mall,"6, Jalan Damanlela, Bukit Damansara",nan,Kuala Lumpur,Wilayah Persekutuan Kuala Lumpur,50490,,3.145769851,101.6624571,,1,Default AC heuristic,0,4.69,4.69
272735,59E7AD42-3B5E-4196-9B70-40E34D94734E,ParkEasy @ Sunway Velocity,"Lingkaran SV, Maluri",nan,Kuala Lumpur,Kuala Lumpur,55100,,3.127204594,101.7245947,,2,Default AC heuristic,0,5.86,2.93
